{
"type": "FeatureCollection",
"crs": { "type": "name", "properties": { "name": "urn:ogc:def:crs:OGC:1.3:CRS84" } },
                                                                                
"features": [
{ "type": "Feature", "properties": { "P29_001": "13101", "P29_005": "共立女子中学校", "P29_006": "一ツ橋2-2-1", "x": 139.757715, "y": 35.693110, "label": "共立女子中学校" }, "geometry": { "type": "Point", "coordinates": [ 139.757714952374158, 35.693110438708885 ] } },
{ "type": "Feature", "properties": { "P29_001": "13101", "P29_005": "暁星中学校", "P29_006": "富士見1-2-5", "x": 139.747823, "y": 35.698068, "label": "暁星中学校" }, "geometry": { "type": "Point", "coordinates": [ 139.747823, 35.698068 ] } },
{ "type": "Feature", "properties": { "P29_001": "13101", "P29_005": "麹町学園女子中学校", "P29_006": "麹町3-8", "x": 139.739213, "y": 35.684958, "label": "麹町学園女子中学校" }, "geometry": { "type": "Point", "coordinates": [ 139.739213, 35.684958 ] } },
{ "type": "Feature", "properties": { "P29_001": "13101", "P29_005": "麹町中学校", "P29_006": "平河町2-5-1", "x": 139.738769, "y": 35.680598, "label": "麹町中学校" }, "geometry": { "type": "Point", "coordinates": [ 139.738769, 35.680598 ] } },
{ "type": "Feature", "properties": { "P29_001": "13101", "P29_005": "三輪田学園中学校", "P29_006": "九段北3-3-15", "x": 139.740268, "y": 35.694485, "label": "三輪田学園中学校" }, "geometry": { "type": "Point", "coordinates": [ 139.740268, 35.694485 ] } },
{ "type": "Feature", "properties": { "P29_001": "13101", "P29_005": "女子学院中学校", "P29_006": "一番町22-10", "x": 139.738546, "y": 35.687569, "label": "女子学院中学校" }, "geometry": { "type": "Point", "coordinates": [ 139.738546, 35.687569 ] } },
{ "type": "Feature", "properties": { "P29_001": "13101", "P29_005": "神田一橋中学校", "P29_006": "一ツ橋2-6-14", "x": 139.756822, "y": 35.694708, "label": "神田一橋中学校" }, "geometry": { "type": "Point", "coordinates": [ 139.756822, 35.694708 ] } },
{ "type": "Feature", "properties": { "P29_001": "13101", "P29_005": "神田女学園中学校", "P29_006": "猿楽町2-3-6", "x": 139.758155, "y": 35.699874, "label": "神田女学園中学校" }, "geometry": { "type": "Point", "coordinates": [ 139.758155, 35.699874 ] } },
{ "type": "Feature", "properties": { "P29_001": "13101", "P29_005": "千代田女学園中学校", "P29_006": "四番町11", "x": 139.739213, "y": 35.688847, "label": "千代田女学園中学校" }, "geometry": { "type": "Point", "coordinates": [ 139.739213, 35.688847 ] } },
{ "type": "Feature", "properties": { "P29_001": "13101", "P29_005": "大妻中学校", "P29_006": "三番町12", "x": 139.743684, "y": 35.689847, "label": "大妻中学校" }, "geometry": { "type": "Point", "coordinates": [ 139.743684, 35.689847 ] } },
{ "type": "Feature", "properties": { "P29_001": "13101", "P29_005": "東京家政学院中学校", "P29_006": "三番町22", "x": 139.742185, "y": 35.691486, "label": "東京家政学院中学校" }, "geometry": { "type": "Point", "coordinates": [ 139.742185, 35.691486 ] } },
{ "type": "Feature", "properties": { "P29_001": "13101", "P29_005": "白百合学園中学校", "P29_006": "九段北2-4-1", "x": 139.744045, "y": 35.695485, "label": "白百合学園中学校" }, "geometry": { "type": "Point", "coordinates": [ 139.744045, 35.695485 ] } },
{ "type": "Feature", "properties": { "P29_001": "13101", "P29_005": "和洋九段女子中学校", "P29_006": "九段北1-12-12", "x": 139.748878, "y": 35.696652, "label": "和洋九段女子中学校" }, "geometry": { "type": "Point", "coordinates": [ 139.748878, 35.696652 ] } },
{ "type": "Feature", "properties": { "P29_001": "13101", "P29_005": "雙葉中学校", "P29_006": "六番町14-1", "x": 139.731788, "y": 35.687092, "label": "雙葉中学校" }, "geometry": { "type": "Point", "coordinates": [ 139.731787957308427, 35.6870922820451 ] } },
{ "type": "Feature", "properties": { "P29_001": "13102", "P29_005": "銀座中学校", "P29_006": "銀座8-19-15", "x": 139.764934, "y": 35.665628, "label": "銀座中学校" }, "geometry": { "type": "Point", "coordinates": [ 139.764934, 35.665628 ] } },
{ "type": "Feature", "properties": { "P29_001": "13102", "P29_005": "晴海中学校", "P29_006": "晴海1-5-3", "x": 139.784849, "y": 35.659546, "label": "晴海中学校" }, "geometry": { "type": "Point", "coordinates": [ 139.784849, 35.659546 ] } },
{ "type": "Feature", "properties": { "P29_001": "13102", "P29_005": "佃中学校", "P29_006": "佃2-3-2", "x": 139.784987, "y": 35.667989, "label": "佃中学校" }, "geometry": { "type": "Point", "coordinates": [ 139.784987, 35.667989 ] } },
{ "type": "Feature", "properties": { "P29_001": "13102", "P29_005": "日本橋女学館中学校", "P29_006": "日本橋馬喰町2-7-6", "x": 139.784266, "y": 35.695931, "label": "日本橋女学館中学校" }, "geometry": { "type": "Point", "coordinates": [ 139.784266, 35.695931 ] } },
{ "type": "Feature", "properties": { "P29_001": "13102", "P29_005": "日本橋中学校", "P29_006": "東日本橋1-10-1", "x": 139.787071, "y": 35.692459, "label": "日本橋中学校" }, "geometry": { "type": "Point", "coordinates": [ 139.787071, 35.692459 ] } },
{ "type": "Feature", "properties": { "P29_001": "13103", "P29_005": "広尾学園中学校", "P29_006": "南麻布5-1-14", "x": 139.722465, "y": 35.654295, "label": "広尾学園中学校" }, "geometry": { "type": "Point", "coordinates": [ 139.722465, 35.654295 ] } },
{ "type": "Feature", "properties": { "P29_001": "13103", "P29_005": "慶應義塾中等部", "P29_006": "三田2-17-10", "x": 139.740464, "y": 35.648935, "label": "慶應義塾中等部" }, "geometry": { "type": "Point", "coordinates": [ 139.740464, 35.648935 ] } },
{ "type": "Feature", "properties": { "P29_001": "13103", "P29_005": "御成門中学校", "P29_006": "西新橋3-25-30", "x": 139.750518, "y": 35.661572, "label": "御成門中学校" }, "geometry": { "type": "Point", "coordinates": [ 139.750518, 35.661572 ] } },
{ "type": "Feature", "properties": { "P29_001": "13103", "P29_005": "港南中学校", "P29_006": "港南4-3-3", "x": 139.748936, "y": 35.631020, "label": "港南中学校" }, "geometry": { "type": "Point", "coordinates": [ 139.748936, 35.63102 ] } },
{ "type": "Feature", "properties": { "P29_001": "13103", "P29_005": "港陽中学校", "P29_006": "台場1-1-5", "x": 139.777236, "y": 35.633842, "label": "港陽中学校" }, "geometry": { "type": "Point", "coordinates": [ 139.777236, 35.633842 ] } },
{ "type": "Feature", "properties": { "P29_001": "13103", "P29_005": "高松中学校", "P29_006": "高輪1-16-25", "x": 139.734104, "y": 35.641463, "label": "高松中学校" }, "geometry": { "type": "Point", "coordinates": [ 139.734104, 35.641463 ] } },
{ "type": "Feature", "properties": { "P29_001": "13103", "P29_005": "高陵中学校", "P29_006": "西麻布4-14-8", "x": 139.720216, "y": 35.656794, "label": "高陵中学校" }, "geometry": { "type": "Point", "coordinates": [ 139.720216, 35.656794 ] } },
{ "type": "Feature", "properties": { "P29_001": "13103", "P29_005": "高輪中学校", "P29_006": "高輪2-1-32", "x": 139.736687, "y": 35.638575, "label": "高輪中学校" }, "geometry": { "type": "Point", "coordinates": [ 139.736687, 35.638575 ] } },
{ "type": "Feature", "properties": { "P29_001": "13103", "P29_005": "三田中学校", "P29_006": "三田4-13-13", "x": 139.741005, "y": 35.645298, "label": "三田中学校" }, "geometry": { "type": "Point", "coordinates": [ 139.741005491514102, 35.645297602528629 ] } },
{ "type": "Feature", "properties": { "P29_001": "13103", "P29_005": "山脇学園中学校", "P29_006": "赤坂4-10-36", "x": 139.733158, "y": 35.674793, "label": "山脇学園中学校" }, "geometry": { "type": "Point", "coordinates": [ 139.733158, 35.674793 ] } },
{ "type": "Feature", "properties": { "P29_001": "13103", "P29_005": "芝中学校", "P29_006": "芝公園3-5-37", "x": 139.746991, "y": 35.660406, "label": "芝中学校" }, "geometry": { "type": "Point", "coordinates": [ 139.746991, 35.660406 ] } },
{ "type": "Feature", "properties": { "P29_001": "13103", "P29_005": "聖心女子学院中等科", "P29_006": "白金4-11-1", "x": 139.726216, "y": 35.642157, "label": "聖心女子学院中等科" }, "geometry": { "type": "Point", "coordinates": [ 139.726216, 35.642157 ] } },
{ "type": "Feature", "properties": { "P29_001": "13103", "P29_005": "青山中学校", "P29_006": "北青山1-1-9", "x": 139.722826, "y": 35.673987, "label": "青山中学校" }, "geometry": { "type": "Point", "coordinates": [ 139.722826, 35.673987 ] } },
{ "type": "Feature", "properties": { "P29_001": "13103", "P29_005": "赤坂中学校", "P29_006": "赤坂9-2-3", "x": 139.730714, "y": 35.668349, "label": "赤坂中学校" }, "geometry": { "type": "Point", "coordinates": [ 139.730714, 35.668349 ] } },
{ "type": "Feature", "properties": { "P29_001": "13103", "P29_005": "朝日中学校", "P29_006": "白金3-18-2", "x": 139.729133, "y": 35.644381, "label": "朝日中学校" }, "geometry": { "type": "Point", "coordinates": [ 139.729132754242897, 35.644381342416672 ] } },
{ "type": "Feature", "properties": { "P29_001": "13103", "P29_005": "東京女子学園中学校", "P29_006": "芝4-1-30", "x": 139.749852, "y": 35.649657, "label": "東京女子学園中学校" }, "geometry": { "type": "Point", "coordinates": [ 139.749852, 35.649657 ] } },
{ "type": "Feature", "properties": { "P29_001": "13103", "P29_005": "東洋英和女学院中学部", "P29_006": "六本木5-14-40", "x": 139.734770, "y": 35.659433, "label": "東洋英和女学院中学部" }, "geometry": { "type": "Point", "coordinates": [ 139.73477, 35.659433 ] } },
{ "type": "Feature", "properties": { "P29_001": "13103", "P29_005": "普連土学園中学校", "P29_006": "三田4-14-16", "x": 139.741242, "y": 35.646102, "label": "普連土学園中学校" }, "geometry": { "type": "Point", "coordinates": [ 139.741242, 35.646102 ] } },
{ "type": "Feature", "properties": { "P29_001": "13103", "P29_005": "麻布中学校", "P29_006": "元麻布2-3-29", "x": 139.727798, "y": 35.654600, "label": "麻布中学校" }, "geometry": { "type": "Point", "coordinates": [ 139.727798, 35.6546 ] } },
{ "type": "Feature", "properties": { "P29_001": "13103", "P29_005": "六本木中学校", "P29_006": "六本木6-8-16", "x": 139.731829, "y": 35.660834, "label": "六本木中学校" }, "geometry": { "type": "Point", "coordinates": [ 139.731829, 35.660834 ] } },
{ "type": "Feature", "properties": { "P29_001": "13103", "P29_005": "頌栄女子学院中学校", "P29_006": "白金台2-26-5", "x": 139.729938, "y": 35.632297, "label": "頌栄女子学院中学校" }, "geometry": { "type": "Point", "coordinates": [ 139.729938, 35.632297 ] } },
{ "type": "Feature", "properties": { "P29_001": "13103", "P29_005": "東海大学付属高輪台高等学校中等部", "P29_006": "高輪2-2-16", "x": 139.734989, "y": 35.638213, "label": "東海大学付属高輪台高等学校中等部" }, "geometry": { "type": "Point", "coordinates": [ 139.734988638205579, 35.638212557327186 ] } },
{ "type": "Feature", "properties": { "P29_001": "13104", "P29_005": "海城中学校", "P29_006": "大久保3-6-1", "x": 139.702465, "y": 35.705039, "label": "海城中学校" }, "geometry": { "type": "Point", "coordinates": [ 139.702465, 35.705039 ] } },
{ "type": "Feature", "properties": { "P29_001": "13104", "P29_005": "学習院女子中等科", "P29_006": "戸山3-20-1", "x": 139.714020, "y": 35.707483, "label": "学習院女子中等科" }, "geometry": { "type": "Point", "coordinates": [ 139.71402, 35.707483 ] } },
{ "type": "Feature", "properties": { "P29_001": "13104", "P29_005": "牛込第一中学校", "P29_006": "北山吹町4-1", "x": 139.730444, "y": 35.700373, "label": "牛込第一中学校" }, "geometry": { "type": "Point", "coordinates": [ 139.730444129719672, 35.700373238048755 ] } },
{ "type": "Feature", "properties": { "P29_001": "13104", "P29_005": "牛込第三中学校", "P29_006": "市谷加賀町1-3-1", "x": 139.731685, "y": 35.697679, "label": "牛込第三中学校" }, "geometry": { "type": "Point", "coordinates": [ 139.731685, 35.697679 ] } },
{ "type": "Feature", "properties": { "P29_001": "13104", "P29_005": "牛込第二中学校", "P29_006": "喜久井町20", "x": 139.723102, "y": 35.704484, "label": "牛込第二中学校" }, "geometry": { "type": "Point", "coordinates": [ 139.723102, 35.704484 ] } },
{ "type": "Feature", "properties": { "P29_001": "13104", "P29_005": "四谷中学校", "P29_006": "四谷1-12", "x": 139.728519, "y": 35.684486, "label": "四谷中学校" }, "geometry": { "type": "Point", "coordinates": [ 139.728519, 35.684486 ] } },
{ "type": "Feature", "properties": { "P29_001": "13104", "P29_005": "新宿中学校", "P29_006": "新宿6-15-22", "x": 139.710841, "y": 35.695405, "label": "新宿中学校" }, "geometry": { "type": "Point", "coordinates": [ 139.710841491514117, 35.695405254854748 ] } },
{ "type": "Feature", "properties": { "P29_001": "13104", "P29_005": "成女学園中学校", "P29_006": "富久町7-30", "x": 139.717326, "y": 35.691624, "label": "成女学園中学校" }, "geometry": { "type": "Point", "coordinates": [ 139.717326, 35.691624 ] } },
{ "type": "Feature", "properties": { "P29_001": "13104", "P29_005": "成城中学校", "P29_006": "原町3-87", "x": 139.723103, "y": 35.698595, "label": "成城中学校" }, "geometry": { "type": "Point", "coordinates": [ 139.723103, 35.698595 ] } },
{ "type": "Feature", "properties": { "P29_001": "13104", "P29_005": "西新宿中学校", "P29_006": "西新宿8-2-44", "x": 139.694819, "y": 35.695942, "label": "西新宿中学校" }, "geometry": { "type": "Point", "coordinates": [ 139.694819, 35.695942 ] } },
{ "type": "Feature", "properties": { "P29_001": "13104", "P29_005": "西早稲田中学校", "P29_006": "戸山3-20-2", "x": 139.710135, "y": 35.708016, "label": "西早稲田中学校" }, "geometry": { "type": "Point", "coordinates": [ 139.710134955663591, 35.708016197856374 ] } },
{ "type": "Feature", "properties": { "P29_001": "13104", "P29_005": "早稲田中学校", "P29_006": "馬場下町62", "x": 139.719603, "y": 35.706594, "label": "早稲田中学校" }, "geometry": { "type": "Point", "coordinates": [ 139.719603, 35.706594 ] } },
{ "type": "Feature", "properties": { "P29_001": "13104", "P29_005": "目白研心中学校", "P29_006": "中落合4-31-1", "x": 139.680994, "y": 35.718120, "label": "目白研心中学校" }, "geometry": { "type": "Point", "coordinates": [ 139.680994, 35.71812 ] } },
{ "type": "Feature", "properties": { "P29_001": "13104", "P29_005": "落合第二中学校", "P29_006": "西落合1-6-5", "x": 139.684438, "y": 35.721453, "label": "落合第二中学校" }, "geometry": { "type": "Point", "coordinates": [ 139.684438, 35.721453 ] } },
{ "type": "Feature", "properties": { "P29_001": "13104", "P29_005": "落合中学校", "P29_006": "下落合2-24-6", "x": 139.700243, "y": 35.718787, "label": "落合中学校" }, "geometry": { "type": "Point", "coordinates": [ 139.700243, 35.718787 ] } },
{ "type": "Feature", "properties": { "P29_001": "13104", "P29_005": "新宿西戸山中学校", "P29_006": "百人町4-3-1", "x": 139.700869, "y": 35.708550, "label": "新宿西戸山中学校" }, "geometry": { "type": "Point", "coordinates": [ 139.700868464149494, 35.70854984776004 ] } },
{ "type": "Feature", "properties": { "P29_001": "13105", "P29_005": "お茶の水女子大学附属中学校", "P29_006": "大塚2-1-1", "x": 139.731434, "y": 35.719538, "label": "お茶の水女子大学附属中学校" }, "geometry": { "type": "Point", "coordinates": [ 139.731434, 35.719538 ] } },
{ "type": "Feature", "properties": { "P29_001": "13105", "P29_005": "郁文館中学校", "P29_006": "向丘2-19-1", "x": 139.757571, "y": 35.721733, "label": "郁文館中学校" }, "geometry": { "type": "Point", "coordinates": [ 139.757571, 35.721733 ] } },
{ "type": "Feature", "properties": { "P29_001": "13105", "P29_005": "京華女子中学校", "P29_006": "白山5-13-5", "x": 139.747488, "y": 35.723649, "label": "京華女子中学校" }, "geometry": { "type": "Point", "coordinates": [ 139.747488, 35.723649 ] } },
{ "type": "Feature", "properties": { "P29_001": "13105", "P29_005": "京華中学校", "P29_006": "白山5-6-6", "x": 139.749822, "y": 35.721677, "label": "京華中学校" }, "geometry": { "type": "Point", "coordinates": [ 139.749822, 35.721677 ] } },
{ "type": "Feature", "properties": { "P29_001": "13105", "P29_005": "駒込中学校", "P29_006": "千駄木5-6-25", "x": 139.756775, "y": 35.725194, "label": "駒込中学校" }, "geometry": { "type": "Point", "coordinates": [ 139.756775, 35.725194 ] } },
{ "type": "Feature", "properties": { "P29_001": "13105", "P29_005": "桜蔭中学校", "P29_006": "本郷1-5-25", "x": 139.756599, "y": 35.703679, "label": "桜蔭中学校" }, "geometry": { "type": "Point", "coordinates": [ 139.756599, 35.703679 ] } },
{ "type": "Feature", "properties": { "P29_001": "13105", "P29_005": "淑徳ＳＣ中等部", "P29_006": "小石川3-14-3", "x": 139.747766, "y": 35.712567, "label": "淑徳ＳＣ中等部" }, "geometry": { "type": "Point", "coordinates": [ 139.747766, 35.712567 ] } },
{ "type": "Feature", "properties": { "P29_001": "13105", "P29_005": "跡見学園中学校", "P29_006": "大塚1-5-9", "x": 139.734573, "y": 35.717899, "label": "跡見学園中学校" }, "geometry": { "type": "Point", "coordinates": [ 139.734573, 35.717899 ] } },
{ "type": "Feature", "properties": { "P29_001": "13105", "P29_005": "第一中学校", "P29_006": "小石川5-8-9", "x": 139.738823, "y": 35.718038, "label": "第一中学校" }, "geometry": { "type": "Point", "coordinates": [ 139.738823, 35.718038 ] } },
{ "type": "Feature", "properties": { "P29_001": "13105", "P29_005": "第九中学校", "P29_006": "本駒込3-28-9", "x": 139.752793, "y": 35.729648, "label": "第九中学校" }, "geometry": { "type": "Point", "coordinates": [ 139.752793, 35.729648 ] } },
{ "type": "Feature", "properties": { "P29_001": "13105", "P29_005": "第三中学校", "P29_006": "春日1-9-31", "x": 139.747072, "y": 35.709150, "label": "第三中学校" }, "geometry": { "type": "Point", "coordinates": [ 139.747072, 35.70915 ] } },
{ "type": "Feature", "properties": { "P29_001": "13105", "P29_005": "第十中学校", "P29_006": "千石2-40-17", "x": 139.742600, "y": 35.723399, "label": "第十中学校" }, "geometry": { "type": "Point", "coordinates": [ 139.7426, 35.723399 ] } },
{ "type": "Feature", "properties": { "P29_001": "13105", "P29_005": "第八中学校", "P29_006": "千駄木2-19-22", "x": 139.760710, "y": 35.724205, "label": "第八中学校" }, "geometry": { "type": "Point", "coordinates": [ 139.76071, 35.724205 ] } },
{ "type": "Feature", "properties": { "P29_001": "13105", "P29_005": "第六中学校", "P29_006": "向丘1-2-15", "x": 139.757766, "y": 35.717094, "label": "第六中学校" }, "geometry": { "type": "Point", "coordinates": [ 139.757766, 35.717094 ] } },
{ "type": "Feature", "properties": { "P29_001": "13105", "P29_005": "筑波大学附属中学校", "P29_006": "大塚1-9-1", "x": 139.730462, "y": 35.716760, "label": "筑波大学附属中学校" }, "geometry": { "type": "Point", "coordinates": [ 139.730462, 35.71676 ] } },
{ "type": "Feature", "properties": { "P29_001": "13105", "P29_005": "貞静学園中学校", "P29_006": "大塚1-2-10", "x": 139.735601, "y": 35.716483, "label": "貞静学園中学校" }, "geometry": { "type": "Point", "coordinates": [ 139.735601, 35.716483 ] } },
{ "type": "Feature", "properties": { "P29_001": "13105", "P29_005": "東京学芸大学附属竹早中学校", "P29_006": "小石川4-2-1", "x": 139.743184, "y": 35.713233, "label": "東京学芸大学附属竹早中学校" }, "geometry": { "type": "Point", "coordinates": [ 139.743184, 35.713233 ] } },
{ "type": "Feature", "properties": { "P29_001": "13105", "P29_005": "東邦音楽大学附属東邦中学校", "P29_006": "大塚4-46-9", "x": 139.731545, "y": 35.722787, "label": "東邦音楽大学附属東邦中学校" }, "geometry": { "type": "Point", "coordinates": [ 139.731545, 35.722787 ] } },
{ "type": "Feature", "properties": { "P29_001": "13105", "P29_005": "日本大学豊山中学校", "P29_006": "大塚5-40-10", "x": 139.725629, "y": 35.720371, "label": "日本大学豊山中学校" }, "geometry": { "type": "Point", "coordinates": [ 139.725629, 35.720371 ] } },
{ "type": "Feature", "properties": { "P29_001": "13105", "P29_005": "文京学院大学女子中学校", "P29_006": "本駒込6-18-3", "x": 139.744822, "y": 35.734509, "label": "文京学院大学女子中学校" }, "geometry": { "type": "Point", "coordinates": [ 139.744822, 35.734509 ] } },
{ "type": "Feature", "properties": { "P29_001": "13105", "P29_005": "文林中学校", "P29_006": "千駄木5-25-10", "x": 139.758654, "y": 35.728038, "label": "文林中学校" }, "geometry": { "type": "Point", "coordinates": [ 139.758654, 35.728038 ] } },
{ "type": "Feature", "properties": { "P29_001": "13105", "P29_005": "本郷台中学校", "P29_006": "本郷2-38-23", "x": 139.758960, "y": 35.707012, "label": "本郷台中学校" }, "geometry": { "type": "Point", "coordinates": [ 139.75896, 35.707012 ] } },
{ "type": "Feature", "properties": { "P29_001": "13105", "P29_005": "獨協中学校", "P29_006": "関口3-8-1", "x": 139.727241, "y": 35.713316, "label": "獨協中学校" }, "geometry": { "type": "Point", "coordinates": [ 139.727241, 35.713316 ] } },
{ "type": "Feature", "properties": { "P29_001": "13105", "P29_005": "茗台中学校", "P29_006": "春日2-9-5", "x": 139.740739, "y": 35.713067, "label": "茗台中学校" }, "geometry": { "type": "Point", "coordinates": [ 139.740739, 35.713067 ] } },
{ "type": "Feature", "properties": { "P29_001": "13105", "P29_005": "音羽中学校", "P29_006": "大塚1-9-24", "x": 139.732849, "y": 35.717154, "label": "音羽中学校" }, "geometry": { "type": "Point", "coordinates": [ 139.732849419813107, 35.717154458928334 ] } },
{ "type": "Feature", "properties": { "P29_001": "13105", "P29_005": "村田学園小石川女子中学校", "P29_006": "本駒込2-29-1", "x": 139.746651, "y": 35.728836, "label": "村田学園小石川女子中学校" }, "geometry": { "type": "Point", "coordinates": [ 139.746650883962616, 35.728836408548275 ] } },
{ "type": "Feature", "properties": { "P29_001": "13106", "P29_005": "駒形中学校", "P29_006": "北上野2-15-1", "x": 139.784264, "y": 35.717512, "label": "駒形中学校" }, "geometry": { "type": "Point", "coordinates": [ 139.784264, 35.717512 ] } },
{ "type": "Feature", "properties": { "P29_001": "13106", "P29_005": "御徒町台東中学校", "P29_006": "台東4-13-16", "x": 139.777515, "y": 35.706957, "label": "御徒町台東中学校" }, "geometry": { "type": "Point", "coordinates": [ 139.777515, 35.706957 ] } },
{ "type": "Feature", "properties": { "P29_001": "13106", "P29_005": "桜橋中学校", "P29_006": "今戸2-1-8", "x": 139.806846, "y": 35.720791, "label": "桜橋中学校" }, "geometry": { "type": "Point", "coordinates": [ 139.806846, 35.720791 ] } },
{ "type": "Feature", "properties": { "P29_001": "13106", "P29_005": "上野学園中学校", "P29_006": "東上野4-24-12", "x": 139.781959, "y": 35.715068, "label": "上野学園中学校" }, "geometry": { "type": "Point", "coordinates": [ 139.781959, 35.715068 ] } },
{ "type": "Feature", "properties": { "P29_001": "13106", "P29_005": "上野中学校", "P29_006": "上野桜木1-14-55", "x": 139.774903, "y": 35.721345, "label": "上野中学校" }, "geometry": { "type": "Point", "coordinates": [ 139.774903, 35.721345 ] } },
{ "type": "Feature", "properties": { "P29_001": "13106", "P29_005": "浅草中学校", "P29_006": "蔵前1-3-4", "x": 139.789932, "y": 35.699930, "label": "浅草中学校" }, "geometry": { "type": "Point", "coordinates": [ 139.789932, 35.69993 ] } },
{ "type": "Feature", "properties": { "P29_001": "13106", "P29_005": "忍岡中学校", "P29_006": "上野公園18-20", "x": 139.778986, "y": 35.719317, "label": "忍岡中学校" }, "geometry": { "type": "Point", "coordinates": [ 139.778986, 35.719317 ] } },
{ "type": "Feature", "properties": { "P29_001": "13106", "P29_005": "柏葉中学校", "P29_006": "下谷3-1-29", "x": 139.785903, "y": 35.723595, "label": "柏葉中学校" }, "geometry": { "type": "Point", "coordinates": [ 139.785903, 35.723595 ] } },
{ "type": "Feature", "properties": { "P29_001": "13106", "P29_005": "白オウ高等学校附属中学校", "P29_006": "元浅草3-12-12", "x": 139.787375, "y": 35.707180, "label": "白オウ高等学校附属中学校" }, "geometry": { "type": "Point", "coordinates": [ 139.787375, 35.70718 ] } },
{ "type": "Feature", "properties": { "P29_001": "13107", "P29_005": "安田学園中学校", "P29_006": "横網2-2-25", "x": 139.795765, "y": 35.699930, "label": "安田学園中学校" }, "geometry": { "type": "Point", "coordinates": [ 139.795765, 35.69993 ] } },
{ "type": "Feature", "properties": { "P29_001": "13107", "P29_005": "錦糸中学校", "P29_006": "石原4-33-14", "x": 139.806958, "y": 35.701458, "label": "錦糸中学校" }, "geometry": { "type": "Point", "coordinates": [ 139.806958, 35.701458 ] } },
{ "type": "Feature", "properties": { "P29_001": "13107", "P29_005": "吾嬬第一中学校", "P29_006": "立花5-48-9", "x": 139.831926, "y": 35.712986, "label": "吾嬬第一中学校" }, "geometry": { "type": "Point", "coordinates": [ 139.831926, 35.712986 ] } },
{ "type": "Feature", "properties": { "P29_001": "13107", "P29_005": "吾嬬第二中学校", "P29_006": "八広4-4-4", "x": 139.827149, "y": 35.721846, "label": "吾嬬第二中学校" }, "geometry": { "type": "Point", "coordinates": [ 139.827149, 35.721846 ] } },
{ "type": "Feature", "properties": { "P29_001": "13107", "P29_005": "向島中学校", "P29_006": "東向島4-18-9", "x": 139.817179, "y": 35.726096, "label": "向島中学校" }, "geometry": { "type": "Point", "coordinates": [ 139.817179, 35.726096 ] } },
{ "type": "Feature", "properties": { "P29_001": "13107", "P29_005": "寺島中学校", "P29_006": "八広1-17-15", "x": 139.823094, "y": 35.720152, "label": "寺島中学校" }, "geometry": { "type": "Point", "coordinates": [ 139.823094, 35.720152 ] } },
{ "type": "Feature", "properties": { "P29_001": "13107", "P29_005": "鐘淵中学校", "P29_006": "堤通2-11-1", "x": 139.816344, "y": 35.738539, "label": "鐘淵中学校" }, "geometry": { "type": "Point", "coordinates": [ 139.816344, 35.738539 ] } },
{ "type": "Feature", "properties": { "P29_001": "13107", "P29_005": "竪川中学校", "P29_006": "亀沢4-11-15", "x": 139.805708, "y": 35.696847, "label": "竪川中学校" }, "geometry": { "type": "Point", "coordinates": [ 139.805708, 35.696847 ] } },
{ "type": "Feature", "properties": { "P29_001": "13107", "P29_005": "日本大学第一中学校", "P29_006": "横網1-5-2", "x": 139.797098, "y": 35.697431, "label": "日本大学第一中学校" }, "geometry": { "type": "Point", "coordinates": [ 139.797098, 35.697431 ] } },
{ "type": "Feature", "properties": { "P29_001": "13107", "P29_005": "文花中学校", "P29_006": "文花1-22-7", "x": 139.822005, "y": 35.710181, "label": "文花中学校" }, "geometry": { "type": "Point", "coordinates": [ 139.822005, 35.710181 ] } },
{ "type": "Feature", "properties": { "P29_001": "13107", "P29_005": "墨田中学校", "P29_006": "向島4-25-22", "x": 139.811512, "y": 35.715041, "label": "墨田中学校" }, "geometry": { "type": "Point", "coordinates": [ 139.811512, 35.715041 ] } },
{ "type": "Feature", "properties": { "P29_001": "13107", "P29_005": "本所中学校", "P29_006": "東駒形3-1-10", "x": 139.802846, "y": 35.705319, "label": "本所中学校" }, "geometry": { "type": "Point", "coordinates": [ 139.802846, 35.705319 ] } },
{ "type": "Feature", "properties": { "P29_001": "13107", "P29_005": "立花中学校", "P29_006": "立花4-30-18", "x": 139.834787, "y": 35.709819, "label": "立花中学校" }, "geometry": { "type": "Point", "coordinates": [ 139.834787, 35.709819 ] } },
{ "type": "Feature", "properties": { "P29_001": "13107", "P29_005": "両国高等学校附属中学校", "P29_006": "江東橋1-7-14", "x": 139.810143, "y": 35.694122, "label": "両国高等学校附属中学校" }, "geometry": { "type": "Point", "coordinates": [ 139.810143, 35.694122 ] } },
{ "type": "Feature", "properties": { "P29_001": "13107", "P29_005": "両国中学校", "P29_006": "横網1-8-1", "x": 139.795571, "y": 35.697653, "label": "両国中学校" }, "geometry": { "type": "Point", "coordinates": [ 139.795571, 35.697653 ] } },
{ "type": "Feature", "properties": { "P29_001": "13108", "P29_005": "亀戸中学校", "P29_006": "亀戸9-2-2", "x": 139.841815, "y": 35.695293, "label": "亀戸中学校" }, "geometry": { "type": "Point", "coordinates": [ 139.841815, 35.695293 ] } },
{ "type": "Feature", "properties": { "P29_001": "13108", "P29_005": "砂町中学校", "P29_006": "北砂6-16-28", "x": 139.837177, "y": 35.685238, "label": "砂町中学校" }, "geometry": { "type": "Point", "coordinates": [ 139.837177, 35.685238 ] } },
{ "type": "Feature", "properties": { "P29_001": "13108", "P29_005": "深川第一中学校", "P29_006": "森下4-9-22", "x": 139.805598, "y": 35.685266, "label": "深川第一中学校" }, "geometry": { "type": "Point", "coordinates": [ 139.805598, 35.685266 ] } },
{ "type": "Feature", "properties": { "P29_001": "13108", "P29_005": "深川第五中学校", "P29_006": "豊洲4-11-18", "x": 139.799157, "y": 35.652677, "label": "深川第五中学校" }, "geometry": { "type": "Point", "coordinates": [ 139.799157, 35.652677 ] } },
{ "type": "Feature", "properties": { "P29_001": "13108", "P29_005": "深川第三中学校", "P29_006": "越中島3-7-1", "x": 139.795587, "y": 35.666460, "label": "深川第三中学校" }, "geometry": { "type": "Point", "coordinates": [ 139.795587, 35.66646 ] } },
{ "type": "Feature", "properties": { "P29_001": "13108", "P29_005": "深川第四中学校", "P29_006": "千石1-12-12", "x": 139.812458, "y": 35.678933, "label": "深川第四中学校" }, "geometry": { "type": "Point", "coordinates": [ 139.812458, 35.678933 ] } },
{ "type": "Feature", "properties": { "P29_001": "13108", "P29_005": "深川第七中学校", "P29_006": "毛利1-14-1", "x": 139.813513, "y": 35.691348, "label": "深川第七中学校" }, "geometry": { "type": "Point", "coordinates": [ 139.813513, 35.691348 ] } },
{ "type": "Feature", "properties": { "P29_001": "13108", "P29_005": "深川第二中学校", "P29_006": "冬木22-10", "x": 139.800626, "y": 35.676461, "label": "深川第二中学校" }, "geometry": { "type": "Point", "coordinates": [ 139.800626, 35.676461 ] } },
{ "type": "Feature", "properties": { "P29_001": "13108", "P29_005": "深川第八中学校", "P29_006": "塩浜2-21-14", "x": 139.811957, "y": 35.664796, "label": "深川第八中学校" }, "geometry": { "type": "Point", "coordinates": [ 139.811957, 35.664796 ] } },
{ "type": "Feature", "properties": { "P29_001": "13108", "P29_005": "深川第六中学校", "P29_006": "平野3-6-13", "x": 139.805570, "y": 35.678794, "label": "深川第六中学校" }, "geometry": { "type": "Point", "coordinates": [ 139.80557, 35.678794 ] } },
{ "type": "Feature", "properties": { "P29_001": "13108", "P29_005": "大島西中学校", "P29_006": "大島4-1-23", "x": 139.827900, "y": 35.686405, "label": "大島西中学校" }, "geometry": { "type": "Point", "coordinates": [ 139.8279, 35.686405 ] } },
{ "type": "Feature", "properties": { "P29_001": "13108", "P29_005": "大島中学校", "P29_006": "大島8-12-22", "x": 139.839815, "y": 35.686710, "label": "大島中学校" }, "geometry": { "type": "Point", "coordinates": [ 139.839815, 35.68671 ] } },
{ "type": "Feature", "properties": { "P29_001": "13108", "P29_005": "第三亀戸中学校", "P29_006": "亀戸1-12-10", "x": 139.821234, "y": 35.695042, "label": "第三亀戸中学校" }, "geometry": { "type": "Point", "coordinates": [ 139.821234, 35.695042 ] } },
{ "type": "Feature", "properties": { "P29_001": "13108", "P29_005": "第三砂町中学校", "P29_006": "南砂3-10-3", "x": 139.833233, "y": 35.672656, "label": "第三砂町中学校" }, "geometry": { "type": "Point", "coordinates": [ 139.833233, 35.672656 ] } },
{ "type": "Feature", "properties": { "P29_001": "13108", "P29_005": "第四砂町中学校", "P29_006": "北砂5-20-17", "x": 139.831677, "y": 35.684822, "label": "第四砂町中学校" }, "geometry": { "type": "Point", "coordinates": [ 139.831677, 35.684822 ] } },
{ "type": "Feature", "properties": { "P29_001": "13108", "P29_005": "第二亀戸中学校", "P29_006": "亀戸4-51-1", "x": 139.832566, "y": 35.702625, "label": "第二亀戸中学校" }, "geometry": { "type": "Point", "coordinates": [ 139.832566, 35.702625 ] } },
{ "type": "Feature", "properties": { "P29_001": "13108", "P29_005": "第二砂町中学校", "P29_006": "東砂8-10-9", "x": 139.839566, "y": 35.668352, "label": "第二砂町中学校" }, "geometry": { "type": "Point", "coordinates": [ 139.839566, 35.668352 ] } },
{ "type": "Feature", "properties": { "P29_001": "13108", "P29_005": "第二大島中学校", "P29_006": "大島3-27-18", "x": 139.831538, "y": 35.691654, "label": "第二大島中学校" }, "geometry": { "type": "Point", "coordinates": [ 139.831538, 35.691654 ] } },
{ "type": "Feature", "properties": { "P29_001": "13108", "P29_005": "第二南砂中学校", "P29_006": "南砂1-2-18", "x": 139.821318, "y": 35.678017, "label": "第二南砂中学校" }, "geometry": { "type": "Point", "coordinates": [ 139.821318, 35.678017 ] } },
{ "type": "Feature", "properties": { "P29_001": "13108", "P29_005": "辰巳中学校", "P29_006": "辰巳1-10-57", "x": 139.811347, "y": 35.646826, "label": "辰巳中学校" }, "geometry": { "type": "Point", "coordinates": [ 139.811347, 35.646826 ] } },
{ "type": "Feature", "properties": { "P29_001": "13108", "P29_005": "中村中学校", "P29_006": "清澄2-3-15", "x": 139.796599, "y": 35.681460, "label": "中村中学校" }, "geometry": { "type": "Point", "coordinates": [ 139.796599, 35.68146 ] } },
{ "type": "Feature", "properties": { "P29_001": "13108", "P29_005": "東陽中学校", "P29_006": "東陽2-1-8", "x": 139.814013, "y": 35.666907, "label": "東陽中学校" }, "geometry": { "type": "Point", "coordinates": [ 139.814013, 35.666907 ] } },
{ "type": "Feature", "properties": { "P29_001": "13108", "P29_005": "南砂中学校", "P29_006": "南砂2-3-20", "x": 139.823678, "y": 35.673351, "label": "南砂中学校" }, "geometry": { "type": "Point", "coordinates": [ 139.823678, 35.673351 ] } },
{ "type": "Feature", "properties": { "P29_001": "13108", "P29_005": "有明中学校", "P29_006": "有明2-10-1", "x": 139.795973, "y": 35.640432, "label": "有明中学校" }, "geometry": { "type": "Point", "coordinates": [ 139.795973233719451, 35.640431668091509 ] } },
{ "type": "Feature", "properties": { "P29_001": "13108", "P29_005": "かえつ有明中学校", "P29_006": "東雲2-16-1", "x": 139.797643, "y": 35.641039, "label": "かえつ有明中学校" }, "geometry": { "type": "Point", "coordinates": [ 139.797642958953077, 35.641039210315533 ] } },
{ "type": "Feature", "properties": { "P29_001": "13109", "P29_005": "品川学園中学校", "P29_006": "北品川3-9-30", "x": 139.738077, "y": 35.618160, "label": "品川学園中学校" }, "geometry": { "type": "Point", "coordinates": [ 139.738077, 35.61816 ] } },
{ "type": "Feature", "properties": { "P29_001": "13109", "P29_005": "伊藤学園中学校", "P29_006": "大井5-1-37", "x": 139.725967, "y": 35.600051, "label": "伊藤学園中学校" }, "geometry": { "type": "Point", "coordinates": [ 139.725967, 35.600051 ] } },
{ "type": "Feature", "properties": { "P29_001": "13109", "P29_005": "荏原第一中学校", "P29_006": "荏原1-24-30", "x": 139.713217, "y": 35.619410, "label": "荏原第一中学校" }, "geometry": { "type": "Point", "coordinates": [ 139.713217, 35.61941 ] } },
{ "type": "Feature", "properties": { "P29_001": "13109", "P29_005": "荏原第五中学校", "P29_006": "旗の台5-11-13", "x": 139.701886, "y": 35.603522, "label": "荏原第五中学校" }, "geometry": { "type": "Point", "coordinates": [ 139.701886, 35.603522 ] } },
{ "type": "Feature", "properties": { "P29_001": "13109", "P29_005": "荏原第六中学校", "P29_006": "小山5-20-19", "x": 139.699913, "y": 35.616549, "label": "荏原第六中学校" }, "geometry": { "type": "Point", "coordinates": [ 139.699913, 35.616549 ] } },
{ "type": "Feature", "properties": { "P29_001": "13109", "P29_005": "荏原平塚学園中学校", "P29_006": "平塚3-16-26", "x": 139.709996, "y": 35.615604, "label": "荏原平塚学園中学校" }, "geometry": { "type": "Point", "coordinates": [ 139.709996, 35.615604 ] } },
{ "type": "Feature", "properties": { "P29_001": "13109", "P29_005": "戸越台中学校", "P29_006": "戸越1-15-23", "x": 139.717551, "y": 35.615827, "label": "戸越台中学校" }, "geometry": { "type": "Point", "coordinates": [ 139.717551, 35.615827 ] } },
{ "type": "Feature", "properties": { "P29_001": "13109", "P29_005": "攻玉社中学校", "P29_006": "西五反田5-14-2", "x": 139.713662, "y": 35.624520, "label": "攻玉社中学校" }, "geometry": { "type": "Point", "coordinates": [ 139.713662, 35.62452 ] } },
{ "type": "Feature", "properties": { "P29_001": "13109", "P29_005": "香蘭女学校中等科", "P29_006": "旗の台6-22-21", "x": 139.701330, "y": 35.607744, "label": "香蘭女学校中等科" }, "geometry": { "type": "Point", "coordinates": [ 139.70133, 35.607744 ] } },
{ "type": "Feature", "properties": { "P29_001": "13109", "P29_005": "小野学園女子中学校", "P29_006": "西大井1-6-13", "x": 139.726245, "y": 35.602495, "label": "小野学園女子中学校" }, "geometry": { "type": "Point", "coordinates": [ 139.726245, 35.602495 ] } },
{ "type": "Feature", "properties": { "P29_001": "13109", "P29_005": "青稜中学校", "P29_006": "二葉1-6-6", "x": 139.727778, "y": 35.608670, "label": "青稜中学校" }, "geometry": { "type": "Point", "coordinates": [ 139.727778, 35.60867 ] } },
{ "type": "Feature", "properties": { "P29_001": "13109", "P29_005": "大崎中学校", "P29_006": "西品川3-10-6", "x": 139.723106, "y": 35.615799, "label": "大崎中学校" }, "geometry": { "type": "Point", "coordinates": [ 139.723106, 35.615799 ] } },
{ "type": "Feature", "properties": { "P29_001": "13109", "P29_005": "東海中学校", "P29_006": "東品川3-30-15", "x": 139.748993, "y": 35.612578, "label": "東海中学校" }, "geometry": { "type": "Point", "coordinates": [ 139.748993, 35.612578 ] } },
{ "type": "Feature", "properties": { "P29_001": "13109", "P29_005": "日野学園中学校", "P29_006": "東五反田2-11-1", "x": 139.727875, "y": 35.624380, "label": "日野学園中学校" }, "geometry": { "type": "Point", "coordinates": [ 139.727875, 35.62438 ] } },
{ "type": "Feature", "properties": { "P29_001": "13109", "P29_005": "品川女子学院中等部", "P29_006": "北品川3-3-12", "x": 139.739326, "y": 35.620827, "label": "品川女子学院中等部" }, "geometry": { "type": "Point", "coordinates": [ 139.739326, 35.620827 ] } },
{ "type": "Feature", "properties": { "P29_001": "13109", "P29_005": "浜川中学校", "P29_006": "東大井3-18-34", "x": 139.738327, "y": 35.600329, "label": "浜川中学校" }, "geometry": { "type": "Point", "coordinates": [ 139.738327, 35.600329 ] } },
{ "type": "Feature", "properties": { "P29_001": "13109", "P29_005": "冨士見台中学校", "P29_006": "西大井5-5-14", "x": 139.715246, "y": 35.598412, "label": "冨士見台中学校" }, "geometry": { "type": "Point", "coordinates": [ 139.715246, 35.598412 ] } },
{ "type": "Feature", "properties": { "P29_001": "13109", "P29_005": "文教大学付属中学校", "P29_006": "旗の台3-2-17", "x": 139.706496, "y": 35.605606, "label": "文教大学付属中学校" }, "geometry": { "type": "Point", "coordinates": [ 139.706496, 35.605606 ] } },
{ "type": "Feature", "properties": { "P29_001": "13109", "P29_005": "立正中学校", "P29_006": "大崎4-2-16", "x": 139.723300, "y": 35.620910, "label": "立正中学校" }, "geometry": { "type": "Point", "coordinates": [ 139.7233, 35.62091 ] } },
{ "type": "Feature", "properties": { "P29_001": "13109", "P29_005": "鈴ケ森中学校", "P29_006": "南大井2-3-14", "x": 139.737689, "y": 35.592997, "label": "鈴ケ森中学校" }, "geometry": { "type": "Point", "coordinates": [ 139.737689, 35.592997 ] } },
{ "type": "Feature", "properties": { "P29_001": "13109", "P29_005": "豊葉の杜中学校", "P29_006": "豊町3-5-31", "x": 139.721223, "y": 35.609020, "label": "豊葉の杜中学校" }, "geometry": { "type": "Point", "coordinates": [ 139.721222723588909, 35.609019970689744 ] } },
{ "type": "Feature", "properties": { "P29_001": "13109", "P29_005": "八潮学園中学校", "P29_006": "八潮5-11-2", "x": 139.752536, "y": 35.601392, "label": "八潮学園中学校" }, "geometry": { "type": "Point", "coordinates": [ 139.752535941981336, 35.601392 ] } },
{ "type": "Feature", "properties": { "P29_001": "13109", "P29_005": "豊葉の杜学園中学校", "P29_006": "二葉1-3-40", "x": 139.725624, "y": 35.607256, "label": "豊葉の杜学園中学校" }, "geometry": { "type": "Point", "coordinates": [ 139.725623609196248, 35.607256544446734 ] } },
{ "type": "Feature", "properties": { "P29_001": "13110", "P29_005": "トキワ松学園中学校", "P29_006": "碑文谷4-17-16", "x": 139.682331, "y": 35.620714, "label": "トキワ松学園中学校" }, "geometry": { "type": "Point", "coordinates": [ 139.682331, 35.620714 ] } },
{ "type": "Feature", "properties": { "P29_001": "13110", "P29_005": "多摩大学目黒中学校", "P29_006": "下目黒4-10-24", "x": 139.705468, "y": 35.630964, "label": "多摩大学目黒中学校" }, "geometry": { "type": "Point", "coordinates": [ 139.705468, 35.630964 ] } },
{ "type": "Feature", "properties": { "P29_001": "13110", "P29_005": "第一中学校", "P29_006": "大橋2-11-1", "x": 139.686357, "y": 35.654655, "label": "第一中学校" }, "geometry": { "type": "Point", "coordinates": [ 139.686357, 35.654655 ] } },
{ "type": "Feature", "properties": { "P29_001": "13110", "P29_005": "第九中学校", "P29_006": "洗足1-29-26", "x": 139.694858, "y": 35.613688, "label": "第九中学校" }, "geometry": { "type": "Point", "coordinates": [ 139.694858, 35.613688 ] } },
{ "type": "Feature", "properties": { "P29_001": "13110", "P29_005": "第三中学校", "P29_006": "下目黒3-23-18", "x": 139.707551, "y": 35.631047, "label": "第三中学校" }, "geometry": { "type": "Point", "coordinates": [ 139.707551, 35.631047 ] } },
{ "type": "Feature", "properties": { "P29_001": "13110", "P29_005": "第四中学校", "P29_006": "下目黒6-18-2", "x": 139.696830, "y": 35.628575, "label": "第四中学校" }, "geometry": { "type": "Point", "coordinates": [ 139.69683, 35.628575 ] } },
{ "type": "Feature", "properties": { "P29_001": "13110", "P29_005": "第七中学校", "P29_006": "碑文谷1-1-33", "x": 139.691803, "y": 35.622964, "label": "第七中学校" }, "geometry": { "type": "Point", "coordinates": [ 139.691803, 35.622964 ] } },
{ "type": "Feature", "properties": { "P29_001": "13110", "P29_005": "第十一中学校", "P29_006": "緑が丘1-8-1", "x": 139.679137, "y": 35.609466, "label": "第十一中学校" }, "geometry": { "type": "Point", "coordinates": [ 139.679137, 35.609466 ] } },
{ "type": "Feature", "properties": { "P29_001": "13110", "P29_005": "第十中学校", "P29_006": "八雲5-2-1", "x": 139.668693, "y": 35.624353, "label": "第十中学校" }, "geometry": { "type": "Point", "coordinates": [ 139.668693, 35.624353 ] } },
{ "type": "Feature", "properties": { "P29_001": "13110", "P29_005": "第八中学校", "P29_006": "碑文谷4-19-25", "x": 139.682526, "y": 35.619687, "label": "第八中学校" }, "geometry": { "type": "Point", "coordinates": [ 139.682526, 35.619687 ] } },
{ "type": "Feature", "properties": { "P29_001": "13110", "P29_005": "東山中学校", "P29_006": "東山1-24-31", "x": 139.690246, "y": 35.646489, "label": "東山中学校" }, "geometry": { "type": "Point", "coordinates": [ 139.690246, 35.646489 ] } },
{ "type": "Feature", "properties": { "P29_001": "13110", "P29_005": "日出中学校", "P29_006": "目黒1-6-15", "x": 139.711828, "y": 35.635186, "label": "日出中学校" }, "geometry": { "type": "Point", "coordinates": [ 139.711828, 35.635186 ] } },
{ "type": "Feature", "properties": { "P29_001": "13110", "P29_005": "日本工業大学駒場中学校", "P29_006": "駒場1-35-32", "x": 139.683969, "y": 35.657377, "label": "日本工業大学駒場中学校" }, "geometry": { "type": "Point", "coordinates": [ 139.683969, 35.657377 ] } },
{ "type": "Feature", "properties": { "P29_001": "13110", "P29_005": "八雲学園中学校", "P29_006": "八雲2-14-1", "x": 139.669970, "y": 35.618259, "label": "八雲学園中学校" }, "geometry": { "type": "Point", "coordinates": [ 139.66997, 35.618259 ] } },
{ "type": "Feature", "properties": { "P29_001": "13110", "P29_005": "目黒学院中学校", "P29_006": "中目黒1-1-50", "x": 139.702730, "y": 35.644082, "label": "目黒学院中学校" }, "geometry": { "type": "Point", "coordinates": [ 139.70273, 35.644082 ] } },
{ "type": "Feature", "properties": { "P29_001": "13110", "P29_005": "目黒中央中学校", "P29_006": "中町2-37-38", "x": 139.693858, "y": 35.634701, "label": "目黒中央中学校" }, "geometry": { "type": "Point", "coordinates": [ 139.693857940336613, 35.634701146744199 ] } },
{ "type": "Feature", "properties": { "P29_001": "13111", "P29_005": "安方中学校", "P29_006": "東矢口2-1-1", "x": 139.701610, "y": 35.566722, "label": "安方中学校" }, "geometry": { "type": "Point", "coordinates": [ 139.70161, 35.566722 ] } },
{ "type": "Feature", "properties": { "P29_001": "13111", "P29_005": "羽田中学校", "P29_006": "東糀谷6-10-12", "x": 139.750385, "y": 35.556975, "label": "羽田中学校" }, "geometry": { "type": "Point", "coordinates": [ 139.750385, 35.556975 ] } },
{ "type": "Feature", "properties": { "P29_001": "13111", "P29_005": "貝塚中学校", "P29_006": "中馬込3-13-1", "x": 139.705025, "y": 35.593912, "label": "貝塚中学校" }, "geometry": { "type": "Point", "coordinates": [ 139.705025, 35.593912 ] } },
{ "type": "Feature", "properties": { "P29_001": "13111", "P29_005": "蒲田中学校", "P29_006": "蒲田1-12-5", "x": 139.719163, "y": 35.566055, "label": "蒲田中学校" }, "geometry": { "type": "Point", "coordinates": [ 139.719163, 35.566055 ] } },
{ "type": "Feature", "properties": { "P29_001": "13111", "P29_005": "御園中学校", "P29_006": "西蒲田8-5-1", "x": 139.712026, "y": 35.561222, "label": "御園中学校" }, "geometry": { "type": "Point", "coordinates": [ 139.712026, 35.561222 ] } },
{ "type": "Feature", "properties": { "P29_001": "13111", "P29_005": "志茂田中学校", "P29_006": "西六郷1-4-10", "x": 139.710387, "y": 35.555557, "label": "志茂田中学校" }, "geometry": { "type": "Point", "coordinates": [ 139.710387, 35.555557 ] } },
{ "type": "Feature", "properties": { "P29_001": "13111", "P29_005": "出雲中学校", "P29_006": "本羽田3-4-15", "x": 139.737441, "y": 35.549058, "label": "出雲中学校" }, "geometry": { "type": "Point", "coordinates": [ 139.737441, 35.549058 ] } },
{ "type": "Feature", "properties": { "P29_001": "13111", "P29_005": "清明学園中学校", "P29_006": "南雪谷3-12-26", "x": 139.686221, "y": 35.591440, "label": "清明学園中学校" }, "geometry": { "type": "Point", "coordinates": [ 139.686221, 35.59144 ] } },
{ "type": "Feature", "properties": { "P29_001": "13111", "P29_005": "石川台中学校", "P29_006": "石川町2-23-1", "x": 139.681582, "y": 35.599217, "label": "石川台中学校" }, "geometry": { "type": "Point", "coordinates": [ 139.681582, 35.599217 ] } },
{ "type": "Feature", "properties": { "P29_001": "13111", "P29_005": "雪谷中学校", "P29_006": "南雪谷5-1-1", "x": 139.689054, "y": 35.590913, "label": "雪谷中学校" }, "geometry": { "type": "Point", "coordinates": [ 139.689054, 35.590913 ] } },
{ "type": "Feature", "properties": { "P29_001": "13111", "P29_005": "大森第一中学校", "P29_006": "大森南5-6-5", "x": 139.751801, "y": 35.562057, "label": "大森第一中学校" }, "geometry": { "type": "Point", "coordinates": [ 139.751801, 35.562057 ] } },
{ "type": "Feature", "properties": { "P29_001": "13111", "P29_005": "大森第三中学校", "P29_006": "中央4-12-8", "x": 139.715691, "y": 35.580525, "label": "大森第三中学校" }, "geometry": { "type": "Point", "coordinates": [ 139.715691, 35.580525 ] } },
{ "type": "Feature", "properties": { "P29_001": "13111", "P29_005": "大森第四中学校", "P29_006": "池上1-15-1", "x": 139.705748, "y": 35.576554, "label": "大森第四中学校" }, "geometry": { "type": "Point", "coordinates": [ 139.705748, 35.576554 ] } },
{ "type": "Feature", "properties": { "P29_001": "13111", "P29_005": "大森第七中学校", "P29_006": "南久が原1-3-1", "x": 139.689860, "y": 35.578248, "label": "大森第七中学校" }, "geometry": { "type": "Point", "coordinates": [ 139.68986, 35.578248 ] } },
{ "type": "Feature", "properties": { "P29_001": "13111", "P29_005": "大森第十中学校", "P29_006": "仲池上2-13-1", "x": 139.700053, "y": 35.584941, "label": "大森第十中学校" }, "geometry": { "type": "Point", "coordinates": [ 139.700053, 35.584941 ] } },
{ "type": "Feature", "properties": { "P29_001": "13111", "P29_005": "大森第二中学校", "P29_006": "大森北6-18-1", "x": 139.732245, "y": 35.579526, "label": "大森第二中学校" }, "geometry": { "type": "Point", "coordinates": [ 139.732245, 35.579526 ] } },
{ "type": "Feature", "properties": { "P29_001": "13111", "P29_005": "大森第八中学校", "P29_006": "大森西2-21-1", "x": 139.727190, "y": 35.575915, "label": "大森第八中学校" }, "geometry": { "type": "Point", "coordinates": [ 139.72719, 35.575915 ] } },
{ "type": "Feature", "properties": { "P29_001": "13111", "P29_005": "大森第六中学校", "P29_006": "南千束1-33-1", "x": 139.693081, "y": 35.601911, "label": "大森第六中学校" }, "geometry": { "type": "Point", "coordinates": [ 139.693081, 35.601911 ] } },
{ "type": "Feature", "properties": { "P29_001": "13111", "P29_005": "大森東中学校", "P29_006": "大森東4-1-1", "x": 139.736246, "y": 35.569139, "label": "大森東中学校" }, "geometry": { "type": "Point", "coordinates": [ 139.736246, 35.569139 ] } },
{ "type": "Feature", "properties": { "P29_001": "13111", "P29_005": "田園調布中学校", "P29_006": "田園調布2-60-1", "x": 139.669556, "y": 35.598245, "label": "田園調布中学校" }, "geometry": { "type": "Point", "coordinates": [ 139.669556, 35.598245 ] } },
{ "type": "Feature", "properties": { "P29_001": "13111", "P29_005": "東蒲中学校", "P29_006": "東蒲田2-38-1", "x": 139.729080, "y": 35.560862, "label": "東蒲中学校" }, "geometry": { "type": "Point", "coordinates": [ 139.72908, 35.560862 ] } },
{ "type": "Feature", "properties": { "P29_001": "13111", "P29_005": "東調布中学校", "P29_006": "田園調布南29-15", "x": 139.678806, "y": 35.583386, "label": "東調布中学校" }, "geometry": { "type": "Point", "coordinates": [ 139.678806, 35.583386 ] } },
{ "type": "Feature", "properties": { "P29_001": "13111", "P29_005": "南六郷中学校", "P29_006": "南六郷3-2-1", "x": 139.716665, "y": 35.546253, "label": "南六郷中学校" }, "geometry": { "type": "Point", "coordinates": [ 139.716665, 35.546253 ] } },
{ "type": "Feature", "properties": { "P29_001": "13111", "P29_005": "馬込中学校", "P29_006": "西馬込2-35-6", "x": 139.702970, "y": 35.584552, "label": "馬込中学校" }, "geometry": { "type": "Point", "coordinates": [ 139.70297, 35.584552 ] } },
{ "type": "Feature", "properties": { "P29_001": "13111", "P29_005": "馬込東中学校", "P29_006": "南馬込2-26-30", "x": 139.717385, "y": 35.589719, "label": "馬込東中学校" }, "geometry": { "type": "Point", "coordinates": [ 139.717385, 35.589719 ] } },
{ "type": "Feature", "properties": { "P29_001": "13111", "P29_005": "矢口中学校", "P29_006": "下丸子2-23-1", "x": 139.685612, "y": 35.563639, "label": "矢口中学校" }, "geometry": { "type": "Point", "coordinates": [ 139.685612, 35.563639 ] } },
{ "type": "Feature", "properties": { "P29_001": "13111", "P29_005": "蓮沼中学校", "P29_006": "西蒲田2-3-1", "x": 139.707887, "y": 35.570693, "label": "蓮沼中学校" }, "geometry": { "type": "Point", "coordinates": [ 139.707887, 35.570693 ] } },
{ "type": "Feature", "properties": { "P29_001": "13111", "P29_005": "六郷中学校", "P29_006": "仲六郷3-11-11", "x": 139.710777, "y": 35.548308, "label": "六郷中学校" }, "geometry": { "type": "Point", "coordinates": [ 139.710777, 35.548308 ] } },
{ "type": "Feature", "properties": { "P29_001": "13111", "P29_005": "糀谷中学校", "P29_006": "西糀谷3-6-23", "x": 139.736441, "y": 35.556252, "label": "糀谷中学校" }, "geometry": { "type": "Point", "coordinates": [ 139.736441, 35.556252 ] } },
{ "type": "Feature", "properties": { "P29_001": "13112", "P29_005": "オウ友学園女子中学校", "P29_006": "宮坂1-5-30", "x": 139.640334, "y": 35.647294, "label": "オウ友学園女子中学校" }, "geometry": { "type": "Point", "coordinates": [ 139.640334, 35.647294 ] } },
{ "type": "Feature", "properties": { "P29_001": "13112", "P29_005": "東京都市大学等々力中学校", "P29_006": "等々力8-10-1", "x": 139.651723, "y": 35.613381, "label": "東京都市大学等々力中学校" }, "geometry": { "type": "Point", "coordinates": [ 139.651723, 35.613381 ] } },
{ "type": "Feature", "properties": { "P29_001": "13112", "P29_005": "東京都市大学付属中学校", "P29_006": "成城1-13-1", "x": 139.602504, "y": 35.632739, "label": "東京都市大学付属中学校" }, "geometry": { "type": "Point", "coordinates": [ 139.602504, 35.632739 ] } },
{ "type": "Feature", "properties": { "P29_001": "13112", "P29_005": "芦花中学校", "P29_006": "粕谷2-22-2", "x": 139.610780, "y": 35.666207, "label": "芦花中学校" }, "geometry": { "type": "Point", "coordinates": [ 139.61078, 35.666207 ] } },
{ "type": "Feature", "properties": { "P29_001": "13112", "P29_005": "烏山中学校", "P29_006": "南烏山4-26-1", "x": 139.600836, "y": 35.671984, "label": "烏山中学校" }, "geometry": { "type": "Point", "coordinates": [ 139.600836, 35.671984 ] } },
{ "type": "Feature", "properties": { "P29_001": "13112", "P29_005": "奥沢中学校", "P29_006": "奥沢1-42-1", "x": 139.679554, "y": 35.602494, "label": "奥沢中学校" }, "geometry": { "type": "Point", "coordinates": [ 139.679554, 35.602494 ] } },
{ "type": "Feature", "properties": { "P29_001": "13112", "P29_005": "喜多見中学校", "P29_006": "喜多見4-20-1", "x": 139.594311, "y": 35.625657, "label": "喜多見中学校" }, "geometry": { "type": "Point", "coordinates": [ 139.594311, 35.625657 ] } },
{ "type": "Feature", "properties": { "P29_001": "13112", "P29_005": "砧中学校", "P29_006": "成城1-10-1", "x": 139.600810, "y": 35.633572, "label": "砧中学校" }, "geometry": { "type": "Point", "coordinates": [ 139.60081, 35.633572 ] } },
{ "type": "Feature", "properties": { "P29_001": "13112", "P29_005": "砧南中学校", "P29_006": "鎌田3-13-20", "x": 139.613393, "y": 35.621463, "label": "砧南中学校" }, "geometry": { "type": "Point", "coordinates": [ 139.613393, 35.621463 ] } },
{ "type": "Feature", "properties": { "P29_001": "13112", "P29_005": "玉川聖学院中等部", "P29_006": "奥沢7-11-22", "x": 139.663611, "y": 35.606715, "label": "玉川聖学院中等部" }, "geometry": { "type": "Point", "coordinates": [ 139.663611, 35.606715 ] } },
{ "type": "Feature", "properties": { "P29_001": "13112", "P29_005": "玉川中学校", "P29_006": "中町4-21-1", "x": 139.643474, "y": 35.616714, "label": "玉川中学校" }, "geometry": { "type": "Point", "coordinates": [ 139.643474, 35.616714 ] } },
{ "type": "Feature", "properties": { "P29_001": "13112", "P29_005": "駒場東邦中学校", "P29_006": "池尻4-5-1", "x": 139.682386, "y": 35.653433, "label": "駒場東邦中学校" }, "geometry": { "type": "Point", "coordinates": [ 139.682386, 35.653433 ] } },
{ "type": "Feature", "properties": { "P29_001": "13112", "P29_005": "駒沢中学校", "P29_006": "駒沢2-39-25", "x": 139.655972, "y": 35.636295, "label": "駒沢中学校" }, "geometry": { "type": "Point", "coordinates": [ 139.655972, 35.636295 ] } },
{ "type": "Feature", "properties": { "P29_001": "13112", "P29_005": "駒留中学校", "P29_006": "下馬4-18-1", "x": 139.678414, "y": 35.637435, "label": "駒留中学校" }, "geometry": { "type": "Point", "coordinates": [ 139.678414, 35.637435 ] } },
{ "type": "Feature", "properties": { "P29_001": "13112", "P29_005": "恵泉女学園中学校", "P29_006": "船橋5-8-1", "x": 139.628807, "y": 35.655426, "label": "恵泉女学園中学校" }, "geometry": { "type": "Point", "coordinates": [ 139.628806624523264, 35.655425638331543 ] } },
{ "type": "Feature", "properties": { "P29_001": "13112", "P29_005": "弦巻中学校", "P29_006": "弦巻1-42-22", "x": 139.652722, "y": 35.639684, "label": "弦巻中学校" }, "geometry": { "type": "Point", "coordinates": [ 139.652722, 35.639684 ] } },
{ "type": "Feature", "properties": { "P29_001": "13112", "P29_005": "戸板中学校", "P29_006": "用賀2-16-1", "x": 139.638418, "y": 35.627657, "label": "戸板中学校" }, "geometry": { "type": "Point", "coordinates": [ 139.638418, 35.627657 ] } },
{ "type": "Feature", "properties": { "P29_001": "13112", "P29_005": "佼成学園女子中学校", "P29_006": "給田2-1-1", "x": 139.597059, "y": 35.665207, "label": "佼成学園女子中学校" }, "geometry": { "type": "Point", "coordinates": [ 139.597059, 35.665207 ] } },
{ "type": "Feature", "properties": { "P29_001": "13112", "P29_005": "国士舘中学校", "P29_006": "若林4-32-1", "x": 139.654297, "y": 35.647856, "label": "国士舘中学校" }, "geometry": { "type": "Point", "coordinates": [ 139.654297, 35.647856 ] } },
{ "type": "Feature", "properties": { "P29_001": "13112", "P29_005": "国本女子中学校", "P29_006": "喜多見8-15-33", "x": 139.588172, "y": 35.635433, "label": "国本女子中学校" }, "geometry": { "type": "Point", "coordinates": [ 139.588172, 35.635433 ] } },
{ "type": "Feature", "properties": { "P29_001": "13112", "P29_005": "桜丘中学校", "P29_006": "桜丘2-1-39", "x": 139.629640, "y": 35.643655, "label": "桜丘中学校" }, "geometry": { "type": "Point", "coordinates": [ 139.62964, 35.643655 ] } },
{ "type": "Feature", "properties": { "P29_001": "13112", "P29_005": "桜木中学校", "P29_006": "桜1-48-15", "x": 139.641806, "y": 35.645960, "label": "桜木中学校" }, "geometry": { "type": "Point", "coordinates": [ 139.641806, 35.64596 ] } },
{ "type": "Feature", "properties": { "P29_001": "13112", "P29_005": "三宿中学校", "P29_006": "太子堂1-3-43", "x": 139.677775, "y": 35.645572, "label": "三宿中学校" }, "geometry": { "type": "Point", "coordinates": [ 139.677775, 35.645572 ] } },
{ "type": "Feature", "properties": { "P29_001": "13112", "P29_005": "昭和女子大学附属昭和中学校", "P29_006": "太子堂1-7", "x": 139.674359, "y": 35.643906, "label": "昭和女子大学附属昭和中学校" }, "geometry": { "type": "Point", "coordinates": [ 139.674359, 35.643906 ] } },
{ "type": "Feature", "properties": { "P29_001": "13112", "P29_005": "松蔭中学校", "P29_006": "北沢1-16-10", "x": 139.674969, "y": 35.663265, "label": "松蔭中学校" }, "geometry": { "type": "Point", "coordinates": [ 139.674969, 35.663265 ] } },
{ "type": "Feature", "properties": { "P29_001": "13112", "P29_005": "松沢中学校", "P29_006": "桜上水4-5-2", "x": 139.634667, "y": 35.666541, "label": "松沢中学校" }, "geometry": { "type": "Point", "coordinates": [ 139.634667, 35.666541 ] } },
{ "type": "Feature", "properties": { "P29_001": "13112", "P29_005": "上祖師谷中学校", "P29_006": "上祖師谷7-10-1", "x": 139.593226, "y": 35.660207, "label": "上祖師谷中学校" }, "geometry": { "type": "Point", "coordinates": [ 139.593226, 35.660207 ] } },
{ "type": "Feature", "properties": { "P29_001": "13112", "P29_005": "深沢中学校", "P29_006": "新町1-26-29", "x": 139.648334, "y": 35.626602, "label": "深沢中学校" }, "geometry": { "type": "Point", "coordinates": [ 139.648334, 35.626602 ] } },
{ "type": "Feature", "properties": { "P29_001": "13112", "P29_005": "世田谷学園中学校", "P29_006": "三宿1-16-31", "x": 139.675164, "y": 35.648628, "label": "世田谷学園中学校" }, "geometry": { "type": "Point", "coordinates": [ 139.675164, 35.648628 ] } },
{ "type": "Feature", "properties": { "P29_001": "13112", "P29_005": "瀬田中学校", "P29_006": "瀬田2-17-1", "x": 139.632725, "y": 35.618547, "label": "瀬田中学校" }, "geometry": { "type": "Point", "coordinates": [ 139.632725, 35.618547 ] } },
{ "type": "Feature", "properties": { "P29_001": "13112", "P29_005": "成城学園中学校", "P29_006": "成城6-1-20", "x": 139.600921, "y": 35.643626, "label": "成城学園中学校" }, "geometry": { "type": "Point", "coordinates": [ 139.600921, 35.643626 ] } },
{ "type": "Feature", "properties": { "P29_001": "13112", "P29_005": "聖ドミニコ学園中学校", "P29_006": "岡本1-10-1", "x": 139.620503, "y": 35.623824, "label": "聖ドミニコ学園中学校" }, "geometry": { "type": "Point", "coordinates": [ 139.620503, 35.623824 ] } },
{ "type": "Feature", "properties": { "P29_001": "13112", "P29_005": "千歳中学校", "P29_006": "千歳台6-15-1", "x": 139.606170, "y": 35.658208, "label": "千歳中学校" }, "geometry": { "type": "Point", "coordinates": [ 139.60617, 35.658208 ] } },
{ "type": "Feature", "properties": { "P29_001": "13112", "P29_005": "太子堂中学校", "P29_006": "太子堂3-27-17", "x": 139.668859, "y": 35.650822, "label": "太子堂中学校" }, "geometry": { "type": "Point", "coordinates": [ 139.668859, 35.650822 ] } },
{ "type": "Feature", "properties": { "P29_001": "13112", "P29_005": "筑波大学附属駒場中学校", "P29_006": "池尻4-7-1", "x": 139.680997, "y": 35.654710, "label": "筑波大学附属駒場中学校" }, "geometry": { "type": "Point", "coordinates": [ 139.680997, 35.65471 ] } },
{ "type": "Feature", "properties": { "P29_001": "13112", "P29_005": "田園調布学園中等部", "P29_006": "東玉川2-21-8", "x": 139.673639, "y": 35.595745, "label": "田園調布学園中等部" }, "geometry": { "type": "Point", "coordinates": [ 139.673639, 35.595745 ] } },
{ "type": "Feature", "properties": { "P29_001": "13112", "P29_005": "田園調布雙葉中学校", "P29_006": "玉川田園調布1-20-9", "x": 139.657001, "y": 35.598994, "label": "田園調布雙葉中学校" }, "geometry": { "type": "Point", "coordinates": [ 139.657001, 35.598994 ] } },
{ "type": "Feature", "properties": { "P29_001": "13112", "P29_005": "東京学芸大学附属世田谷中学校", "P29_006": "深沢4-3-1", "x": 139.659389, "y": 35.620436, "label": "東京学芸大学附属世田谷中学校" }, "geometry": { "type": "Point", "coordinates": [ 139.659389, 35.620436 ] } },
{ "type": "Feature", "properties": { "P29_001": "13112", "P29_005": "東京農業大学第一高等学校中等部", "P29_006": "桜3-33-1", "x": 139.635548, "y": 35.641737, "label": "東京農業大学第一高等学校中等部" }, "geometry": { "type": "Point", "coordinates": [ 139.635548, 35.641737 ] } },
{ "type": "Feature", "properties": { "P29_001": "13112", "P29_005": "東深沢中学校", "P29_006": "深沢4-18-28", "x": 139.654389, "y": 35.619047, "label": "東深沢中学校" }, "geometry": { "type": "Point", "coordinates": [ 139.654389, 35.619047 ] } },
{ "type": "Feature", "properties": { "P29_001": "13112", "P29_005": "日本学園中学校", "P29_006": "松原2-7-34", "x": 139.648877, "y": 35.664608, "label": "日本学園中学校" }, "geometry": { "type": "Point", "coordinates": [ 139.648877, 35.664608 ] } },
{ "type": "Feature", "properties": { "P29_001": "13112", "P29_005": "梅丘中学校", "P29_006": "松原6-5-11", "x": 139.652221, "y": 35.658876, "label": "梅丘中学校" }, "geometry": { "type": "Point", "coordinates": [ 139.652221, 35.658876 ] } },
{ "type": "Feature", "properties": { "P29_001": "13112", "P29_005": "八幡中学校", "P29_006": "等々力6-4-1", "x": 139.661055, "y": 35.610965, "label": "八幡中学校" }, "geometry": { "type": "Point", "coordinates": [ 139.661055, 35.610965 ] } },
{ "type": "Feature", "properties": { "P29_001": "13112", "P29_005": "尾山台中学校", "P29_006": "尾山台3-27-23", "x": 139.656167, "y": 35.605771, "label": "尾山台中学校" }, "geometry": { "type": "Point", "coordinates": [ 139.656167, 35.605771 ] } },
{ "type": "Feature", "properties": { "P29_001": "13112", "P29_005": "富士中学校", "P29_006": "代沢1-23-17", "x": 139.677442, "y": 35.657016, "label": "富士中学校" }, "geometry": { "type": "Point", "coordinates": [ 139.677442, 35.657016 ] } },
{ "type": "Feature", "properties": { "P29_001": "13112", "P29_005": "北沢中学校", "P29_006": "北沢5-12-3", "x": 139.667081, "y": 35.669347, "label": "北沢中学校" }, "geometry": { "type": "Point", "coordinates": [ 139.667081, 35.669347 ] } },
{ "type": "Feature", "properties": { "P29_001": "13112", "P29_005": "目黒星美学園中学校", "P29_006": "大蔵2-8-1", "x": 139.614253, "y": 35.633184, "label": "目黒星美学園中学校" }, "geometry": { "type": "Point", "coordinates": [ 139.614253, 35.633184 ] } },
{ "type": "Feature", "properties": { "P29_001": "13112", "P29_005": "用賀中学校", "P29_006": "上用賀5-15-1", "x": 139.627252, "y": 35.630518, "label": "用賀中学校" }, "geometry": { "type": "Point", "coordinates": [ 139.627252, 35.630518 ] } },
{ "type": "Feature", "properties": { "P29_001": "13112", "P29_005": "緑丘中学校", "P29_006": "桜上水3-19-12", "x": 139.631334, "y": 35.661514, "label": "緑丘中学校" }, "geometry": { "type": "Point", "coordinates": [ 139.631334, 35.661514 ] } },
{ "type": "Feature", "properties": { "P29_001": "13112", "P29_005": "下北沢成徳中学校", "P29_006": "代田6-12-39", "x": 139.665147, "y": 35.664786, "label": "下北沢成徳中学校" }, "geometry": { "type": "Point", "coordinates": [ 139.66514730377574, 35.664786034917043 ] } },
{ "type": "Feature", "properties": { "P29_001": "13112", "P29_005": "世田谷中学校", "P29_006": "若林5-27-18", "x": 139.657384, "y": 35.649582, "label": "世田谷中学校" }, "geometry": { "type": "Point", "coordinates": [ 139.65738379528986, 35.649581598414578 ] } },
{ "type": "Feature", "properties": { "P29_001": "13112", "P29_005": "船橋希望中学校", "P29_006": "船橋6-25-1", "x": 139.620669, "y": 35.658913, "label": "船橋希望中学校" }, "geometry": { "type": "Point", "coordinates": [ 139.620669102355038, 35.658913114681532 ] } },
{ "type": "Feature", "properties": { "P29_001": "13113", "P29_005": "渋谷本町学園中学校", "P29_006": "本町4-3-1", "x": 139.681968, "y": 35.686012, "label": "渋谷本町学園中学校" }, "geometry": { "type": "Point", "coordinates": [ 139.681968, 35.686012 ] } },
{ "type": "Feature", "properties": { "P29_001": "13113", "P29_005": "原宿外苑中学校", "P29_006": "神宮前1-24-6", "x": 139.705633, "y": 35.673570, "label": "原宿外苑中学校" }, "geometry": { "type": "Point", "coordinates": [ 139.705633, 35.67357 ] } },
{ "type": "Feature", "properties": { "P29_001": "13113", "P29_005": "広尾中学校", "P29_006": "東4-13-25", "x": 139.712411, "y": 35.654239, "label": "広尾中学校" }, "geometry": { "type": "Point", "coordinates": [ 139.712411, 35.654239 ] } },
{ "type": "Feature", "properties": { "P29_001": "13113", "P29_005": "笹塚中学校", "P29_006": "笹塚3-10-1", "x": 139.668580, "y": 35.677791, "label": "笹塚中学校" }, "geometry": { "type": "Point", "coordinates": [ 139.66858, 35.677791 ] } },
{ "type": "Feature", "properties": { "P29_001": "13113", "P29_005": "実践女子学園中学校", "P29_006": "東1-1-11", "x": 139.709661, "y": 35.657294, "label": "実践女子学園中学校" }, "geometry": { "type": "Point", "coordinates": [ 139.709661, 35.657294 ] } },
{ "type": "Feature", "properties": { "P29_001": "13113", "P29_005": "渋谷教育学園渋谷中学校", "P29_006": "渋谷1-21-18", "x": 139.703106, "y": 35.663904, "label": "渋谷教育学園渋谷中学校" }, "geometry": { "type": "Point", "coordinates": [ 139.703106, 35.663904 ] } },
{ "type": "Feature", "properties": { "P29_001": "13113", "P29_005": "松濤中学校", "P29_006": "松濤1-20-4", "x": 139.691012, "y": 35.661137, "label": "松濤中学校" }, "geometry": { "type": "Point", "coordinates": [ 139.691012, 35.661137 ] } },
{ "type": "Feature", "properties": { "P29_001": "13113", "P29_005": "上原中学校", "P29_006": "上原3-41-2", "x": 139.678025, "y": 35.667042, "label": "上原中学校" }, "geometry": { "type": "Point", "coordinates": [ 139.678025, 35.667042 ] } },
{ "type": "Feature", "properties": { "P29_001": "13113", "P29_005": "青山学院中等部", "P29_006": "渋谷4-4-25", "x": 139.711439, "y": 35.659766, "label": "青山学院中等部" }, "geometry": { "type": "Point", "coordinates": [ 139.711439, 35.659766 ] } },
{ "type": "Feature", "properties": { "P29_001": "13113", "P29_005": "代々木中学校", "P29_006": "西原1-46-1", "x": 139.683579, "y": 35.674569, "label": "代々木中学校" }, "geometry": { "type": "Point", "coordinates": [ 139.683579, 35.674569 ] } },
{ "type": "Feature", "properties": { "P29_001": "13113", "P29_005": "東京女学館中学校", "P29_006": "広尾3-7-16", "x": 139.716744, "y": 35.655767, "label": "東京女学館中学校" }, "geometry": { "type": "Point", "coordinates": [ 139.716744, 35.655767 ] } },
{ "type": "Feature", "properties": { "P29_001": "13113", "P29_005": "鉢山中学校", "P29_006": "鶯谷町9-1", "x": 139.703121, "y": 35.653152, "label": "鉢山中学校" }, "geometry": { "type": "Point", "coordinates": [ 139.703121, 35.653152 ] } },
{ "type": "Feature", "properties": { "P29_001": "13113", "P29_005": "富士見丘中学校", "P29_006": "笹塚3-19-9", "x": 139.667081, "y": 35.676847, "label": "富士見丘中学校" }, "geometry": { "type": "Point", "coordinates": [ 139.667081, 35.676847 ] } },
{ "type": "Feature", "properties": { "P29_001": "13114", "P29_005": "新渡戸文化中学校", "P29_006": "本町6-38-1", "x": 139.661497, "y": 35.696344, "label": "新渡戸文化中学校" }, "geometry": { "type": "Point", "coordinates": [ 139.661497, 35.696344 ] } },
{ "type": "Feature", "properties": { "P29_001": "13114", "P29_005": "実践学園中学校", "P29_006": "中央2-34-2", "x": 139.679690, "y": 35.700205, "label": "実践学園中学校" }, "geometry": { "type": "Point", "coordinates": [ 139.67969, 35.700205 ] } },
{ "type": "Feature", "properties": { "P29_001": "13114", "P29_005": "大妻中野中学校", "P29_006": "上高田2-3-7", "x": 139.671432, "y": 35.710480, "label": "大妻中野中学校" }, "geometry": { "type": "Point", "coordinates": [ 139.671432, 35.71048 ] } },
{ "type": "Feature", "properties": { "P29_001": "13114", "P29_005": "第五中学校", "P29_006": "上高田4-28-1", "x": 139.678439, "y": 35.715342, "label": "第五中学校" }, "geometry": { "type": "Point", "coordinates": [ 139.678439, 35.715342 ] } },
{ "type": "Feature", "properties": { "P29_001": "13114", "P29_005": "第三中学校", "P29_006": "東中野5-12-1", "x": 139.688772, "y": 35.708149, "label": "第三中学校" }, "geometry": { "type": "Point", "coordinates": [ 139.688772, 35.708149 ] } },
{ "type": "Feature", "properties": { "P29_001": "13114", "P29_005": "第四中学校", "P29_006": "若宮1-1-18", "x": 139.649858, "y": 35.716175, "label": "第四中学校" }, "geometry": { "type": "Point", "coordinates": [ 139.649858, 35.716175 ] } },
{ "type": "Feature", "properties": { "P29_001": "13114", "P29_005": "第七中学校", "P29_006": "江古田2-9-11", "x": 139.668051, "y": 35.724674, "label": "第七中学校" }, "geometry": { "type": "Point", "coordinates": [ 139.668051, 35.724674 ] } },
{ "type": "Feature", "properties": { "P29_001": "13114", "P29_005": "第十中学校", "P29_006": "中央1-41-1", "x": 139.683801, "y": 35.698622, "label": "第十中学校" }, "geometry": { "type": "Point", "coordinates": [ 139.683801, 35.698622 ] } },
{ "type": "Feature", "properties": { "P29_001": "13114", "P29_005": "第二中学校", "P29_006": "本町5-25-1", "x": 139.671135, "y": 35.692650, "label": "第二中学校" }, "geometry": { "type": "Point", "coordinates": [ 139.671135, 35.69265 ] } },
{ "type": "Feature", "properties": { "P29_001": "13114", "P29_005": "第八中学校", "P29_006": "鷺宮4-7-3", "x": 139.635970, "y": 35.724118, "label": "第八中学校" }, "geometry": { "type": "Point", "coordinates": [ 139.63597, 35.724118 ] } },
{ "type": "Feature", "properties": { "P29_001": "13114", "P29_005": "宝仙学園中学校", "P29_006": "中央2-28-3", "x": 139.680579, "y": 35.699039, "label": "宝仙学園中学校" }, "geometry": { "type": "Point", "coordinates": [ 139.680579, 35.699039 ] } },
{ "type": "Feature", "properties": { "P29_001": "13114", "P29_005": "北中野中学校", "P29_006": "上鷺宮5-7-1", "x": 139.628665, "y": 35.728340, "label": "北中野中学校" }, "geometry": { "type": "Point", "coordinates": [ 139.628665, 35.72834 ] } },
{ "type": "Feature", "properties": { "P29_001": "13114", "P29_005": "明治大学付属中野中学校", "P29_006": "東中野3-3-4", "x": 139.679578, "y": 35.706843, "label": "明治大学付属中野中学校" }, "geometry": { "type": "Point", "coordinates": [ 139.679578, 35.706843 ] } },
{ "type": "Feature", "properties": { "P29_001": "13114", "P29_005": "中野中学校", "P29_006": "中野1-57-12", "x": 139.672075, "y": 35.703640, "label": "中野中学校" }, "geometry": { "type": "Point", "coordinates": [ 139.672075232074747, 35.703639803816458 ] } },
{ "type": "Feature", "properties": { "P29_001": "13114", "P29_005": "富士高等学校附属中学校", "P29_006": "弥生町5-21-1", "x": 139.667109, "y": 35.689624, "label": "富士高等学校附属中学校" }, "geometry": { "type": "Point", "coordinates": [ 139.667109071701049, 35.689623956110367 ] } },
{ "type": "Feature", "properties": { "P29_001": "13114", "P29_005": "緑野中学校", "P29_006": "丸山1-1-19", "x": 139.657471, "y": 35.723941, "label": "緑野中学校" }, "geometry": { "type": "Point", "coordinates": [ 139.657470651887905, 35.72394098595187 ] } },
{ "type": "Feature", "properties": { "P29_001": "13114", "P29_005": "南中野中学校", "P29_006": "南台5-22-17", "x": 139.662456, "y": 35.682509, "label": "南中野中学校" }, "geometry": { "type": "Point", "coordinates": [ 139.662455804598125, 35.682509016440015 ] } },
{ "type": "Feature", "properties": { "P29_001": "13115", "P29_005": "阿佐ヶ谷中学校", "P29_006": "阿佐谷南1-17-3", "x": 139.636328, "y": 35.700454, "label": "阿佐ヶ谷中学校" }, "geometry": { "type": "Point", "coordinates": [ 139.636328, 35.700454 ] } },
{ "type": "Feature", "properties": { "P29_001": "13115", "P29_005": "井荻中学校", "P29_006": "今川2-13-24", "x": 139.610417, "y": 35.718257, "label": "井荻中学校" }, "geometry": { "type": "Point", "coordinates": [ 139.610417, 35.718257 ] } },
{ "type": "Feature", "properties": { "P29_001": "13115", "P29_005": "井草中学校", "P29_006": "上井草3-20-11", "x": 139.602640, "y": 35.722117, "label": "井草中学校" }, "geometry": { "type": "Point", "coordinates": [ 139.60264, 35.722117 ] } },
{ "type": "Feature", "properties": { "P29_001": "13115", "P29_005": "荻窪中学校", "P29_006": "善福寺1-8-3", "x": 139.596446, "y": 35.710341, "label": "荻窪中学校" }, "geometry": { "type": "Point", "coordinates": [ 139.596446, 35.710341 ] } },
{ "type": "Feature", "properties": { "P29_001": "13115", "P29_005": "宮前中学校", "P29_006": "宮前2-12-1", "x": 139.610585, "y": 35.693343, "label": "宮前中学校" }, "geometry": { "type": "Point", "coordinates": [ 139.610585, 35.693343 ] } },
{ "type": "Feature", "properties": { "P29_001": "13115", "P29_005": "佼成学園中学校", "P29_006": "和田2-6-29", "x": 139.656970, "y": 35.687262, "label": "佼成学園中学校" }, "geometry": { "type": "Point", "coordinates": [ 139.65697, 35.687262 ] } },
{ "type": "Feature", "properties": { "P29_001": "13115", "P29_005": "光塩女子学院中等科", "P29_006": "高円寺南2-33-28", "x": 139.653331, "y": 35.700399, "label": "光塩女子学院中等科" }, "geometry": { "type": "Point", "coordinates": [ 139.653331, 35.700399 ] } },
{ "type": "Feature", "properties": { "P29_001": "13115", "P29_005": "向陽中学校", "P29_006": "下高井戸3-24-1", "x": 139.634861, "y": 35.672485, "label": "向陽中学校" }, "geometry": { "type": "Point", "coordinates": [ 139.634861, 35.672485 ] } },
{ "type": "Feature", "properties": { "P29_001": "13115", "P29_005": "高井戸中学校", "P29_006": "高井戸東1-28-1", "x": 139.622640, "y": 35.681400, "label": "高井戸中学校" }, "geometry": { "type": "Point", "coordinates": [ 139.62264, 35.6814 ] } },
{ "type": "Feature", "properties": { "P29_001": "13115", "P29_005": "高円寺中学校", "P29_006": "高円寺北1-4-11", "x": 139.655219, "y": 35.706787, "label": "高円寺中学校" }, "geometry": { "type": "Point", "coordinates": [ 139.655219, 35.706787 ] } },
{ "type": "Feature", "properties": { "P29_001": "13115", "P29_005": "高南中学校", "P29_006": "和田3-40-10", "x": 139.657997, "y": 35.695594, "label": "高南中学校" }, "geometry": { "type": "Point", "coordinates": [ 139.657997, 35.695594 ] } },
{ "type": "Feature", "properties": { "P29_001": "13115", "P29_005": "女子美術大学付属中学校", "P29_006": "和田1-49-8", "x": 139.661942, "y": 35.693733, "label": "女子美術大学付属中学校" }, "geometry": { "type": "Point", "coordinates": [ 139.661942, 35.693733 ] } },
{ "type": "Feature", "properties": { "P29_001": "13115", "P29_005": "松ノ木中学校", "P29_006": "松ノ木1-4-1", "x": 139.640971, "y": 35.686817, "label": "松ノ木中学校" }, "geometry": { "type": "Point", "coordinates": [ 139.640971, 35.686817 ] } },
{ "type": "Feature", "properties": { "P29_001": "13115", "P29_005": "松渓中学校", "P29_006": "荻窪2-3-1", "x": 139.622334, "y": 35.696315, "label": "松渓中学校" }, "geometry": { "type": "Point", "coordinates": [ 139.622334, 35.696315 ] } },
{ "type": "Feature", "properties": { "P29_001": "13115", "P29_005": "神明中学校", "P29_006": "南荻窪2-37-28", "x": 139.610084, "y": 35.700425, "label": "神明中学校" }, "geometry": { "type": "Point", "coordinates": [ 139.610084, 35.700425 ] } },
{ "type": "Feature", "properties": { "P29_001": "13115", "P29_005": "杉森中学校", "P29_006": "阿佐谷北5-45-24", "x": 139.641405, "y": 35.711651, "label": "杉森中学校" }, "geometry": { "type": "Point", "coordinates": [ 139.641405, 35.711651 ] } },
{ "type": "Feature", "properties": { "P29_001": "13115", "P29_005": "杉並学院中学校", "P29_006": "阿佐谷南2-30-17", "x": 139.643082, "y": 35.704370, "label": "杉並学院中学校" }, "geometry": { "type": "Point", "coordinates": [ 139.643082, 35.70437 ] } },
{ "type": "Feature", "properties": { "P29_001": "13115", "P29_005": "西宮中学校", "P29_006": "宮前5-1-25", "x": 139.601641, "y": 35.692621, "label": "西宮中学校" }, "geometry": { "type": "Point", "coordinates": [ 139.601641, 35.692621 ] } },
{ "type": "Feature", "properties": { "P29_001": "13115", "P29_005": "泉南中学校", "P29_006": "堀ノ内1-3-1", "x": 139.655498, "y": 35.684151, "label": "泉南中学校" }, "geometry": { "type": "Point", "coordinates": [ 139.655498, 35.684151 ] } },
{ "type": "Feature", "properties": { "P29_001": "13115", "P29_005": "大宮中学校", "P29_006": "堀ノ内1-16-38", "x": 139.648360, "y": 35.686650, "label": "大宮中学校" }, "geometry": { "type": "Point", "coordinates": [ 139.64836, 35.68665 ] } },
{ "type": "Feature", "properties": { "P29_001": "13115", "P29_005": "中瀬中学校", "P29_006": "下井草4-3-29", "x": 139.619972, "y": 35.719451, "label": "中瀬中学校" }, "geometry": { "type": "Point", "coordinates": [ 139.619972, 35.719451 ] } },
{ "type": "Feature", "properties": { "P29_001": "13115", "P29_005": "天沼中学校", "P29_006": "本天沼3-10-20", "x": 139.620833, "y": 35.712285, "label": "天沼中学校" }, "geometry": { "type": "Point", "coordinates": [ 139.620833, 35.712285 ] } },
{ "type": "Feature", "properties": { "P29_001": "13115", "P29_005": "東京立正中学校", "P29_006": "堀ノ内2-41-15", "x": 139.646665, "y": 35.691455, "label": "東京立正中学校" }, "geometry": { "type": "Point", "coordinates": [ 139.646665, 35.691455 ] } },
{ "type": "Feature", "properties": { "P29_001": "13115", "P29_005": "東原中学校", "P29_006": "下井草1-28-5", "x": 139.631026, "y": 35.717841, "label": "東原中学校" }, "geometry": { "type": "Point", "coordinates": [ 139.631026, 35.717841 ] } },
{ "type": "Feature", "properties": { "P29_001": "13115", "P29_005": "東田中学校", "P29_006": "成田東3-19-17", "x": 139.635194, "y": 35.694649, "label": "東田中学校" }, "geometry": { "type": "Point", "coordinates": [ 139.635194, 35.694649 ] } },
{ "type": "Feature", "properties": { "P29_001": "13115", "P29_005": "日本大学第二中学校", "P29_006": "天沼1-45-33", "x": 139.627694, "y": 35.711536, "label": "日本大学第二中学校" }, "geometry": { "type": "Point", "coordinates": [ 139.627694, 35.711536 ] } },
{ "type": "Feature", "properties": { "P29_001": "13115", "P29_005": "富士見丘中学校", "P29_006": "久我山2-20-1", "x": 139.605724, "y": 35.682872, "label": "富士見丘中学校" }, "geometry": { "type": "Point", "coordinates": [ 139.605724, 35.682872 ] } },
{ "type": "Feature", "properties": { "P29_001": "13115", "P29_005": "文化学園大学附属杉並中学校", "P29_006": "阿佐谷南3-48-16", "x": 139.628694, "y": 35.703926, "label": "文化学園大学附属杉並中学校" }, "geometry": { "type": "Point", "coordinates": [ 139.628694, 35.703926 ] } },
{ "type": "Feature", "properties": { "P29_001": "13115", "P29_005": "立教女学院中学校", "P29_006": "久我山4-29-60", "x": 139.589447, "y": 35.694315, "label": "立教女学院中学校" }, "geometry": { "type": "Point", "coordinates": [ 139.589447, 35.694315 ] } },
{ "type": "Feature", "properties": { "P29_001": "13115", "P29_005": "和泉中学校", "P29_006": "和泉2-17-14", "x": 139.648777, "y": 35.674374, "label": "和泉中学校" }, "geometry": { "type": "Point", "coordinates": [ 139.648777, 35.674374 ] } },
{ "type": "Feature", "properties": { "P29_001": "13115", "P29_005": "和田中学校", "P29_006": "和田2-21-8", "x": 139.658497, "y": 35.690428, "label": "和田中学校" }, "geometry": { "type": "Point", "coordinates": [ 139.658497, 35.690428 ] } },
{ "type": "Feature", "properties": { "P29_001": "13115", "P29_005": "國學院大學久我山中学校", "P29_006": "久我山1-9-1", "x": 139.592948, "y": 35.683927, "label": "國學院大學久我山中学校" }, "geometry": { "type": "Point", "coordinates": [ 139.592948, 35.683927 ] } },
{ "type": "Feature", "properties": { "P29_001": "13116", "P29_005": "学習院中等科", "P29_006": "目白1-5-1", "x": 139.711797, "y": 35.719315, "label": "学習院中等科" }, "geometry": { "type": "Point", "coordinates": [ 139.711797, 35.719315 ] } },
{ "type": "Feature", "properties": { "P29_001": "13116", "P29_005": "駒込中学校", "P29_006": "駒込4-5-1", "x": 139.741988, "y": 35.735953, "label": "駒込中学校" }, "geometry": { "type": "Point", "coordinates": [ 139.741988, 35.735953 ] } },
{ "type": "Feature", "properties": { "P29_001": "13116", "P29_005": "十文字中学校", "P29_006": "北大塚1-10-33", "x": 139.734017, "y": 35.732647, "label": "十文字中学校" }, "geometry": { "type": "Point", "coordinates": [ 139.734017, 35.732647 ] } },
{ "type": "Feature", "properties": { "P29_001": "13116", "P29_005": "淑徳巣鴨中学校", "P29_006": "西巣鴨2-22-16", "x": 139.726260, "y": 35.741337, "label": "淑徳巣鴨中学校" }, "geometry": { "type": "Point", "coordinates": [ 139.72626, 35.741337 ] } },
{ "type": "Feature", "properties": { "P29_001": "13116", "P29_005": "城西大学附属城西中学校", "P29_006": "千早1-10-26", "x": 139.694378, "y": 35.731572, "label": "城西大学附属城西中学校" }, "geometry": { "type": "Point", "coordinates": [ 139.694378, 35.731572 ] } },
{ "type": "Feature", "properties": { "P29_001": "13116", "P29_005": "西巣鴨中学校", "P29_006": "南大塚3-18-1", "x": 139.727212, "y": 35.728953, "label": "西巣鴨中学校" }, "geometry": { "type": "Point", "coordinates": [ 139.727212, 35.728953 ] } },
{ "type": "Feature", "properties": { "P29_001": "13116", "P29_005": "西池袋中学校", "P29_006": "西池袋4-7-1", "x": 139.699992, "y": 35.727592, "label": "西池袋中学校" }, "geometry": { "type": "Point", "coordinates": [ 139.699992, 35.727592 ] } },
{ "type": "Feature", "properties": { "P29_001": "13116", "P29_005": "千川中学校", "P29_006": "高松1-9-21", "x": 139.699964, "y": 35.736091, "label": "千川中学校" }, "geometry": { "type": "Point", "coordinates": [ 139.699964, 35.736091 ] } },
{ "type": "Feature", "properties": { "P29_001": "13116", "P29_005": "千登世橋中学校", "P29_006": "目白1-1-1", "x": 139.711955, "y": 35.717425, "label": "千登世橋中学校" }, "geometry": { "type": "Point", "coordinates": [ 139.711955, 35.717425 ] } },
{ "type": "Feature", "properties": { "P29_001": "13116", "P29_005": "川村中学校", "P29_006": "目白2-22-3", "x": 139.707909, "y": 35.721370, "label": "川村中学校" }, "geometry": { "type": "Point", "coordinates": [ 139.707909, 35.72137 ] } },
{ "type": "Feature", "properties": { "P29_001": "13116", "P29_005": "巣鴨中学校", "P29_006": "上池袋1-21-1", "x": 139.721712, "y": 35.736147, "label": "巣鴨中学校" }, "geometry": { "type": "Point", "coordinates": [ 139.721712, 35.736147 ] } },
{ "type": "Feature", "properties": { "P29_001": "13116", "P29_005": "巣鴨北中学校", "P29_006": "西巣鴨3-17-1", "x": 139.728795, "y": 35.741591, "label": "巣鴨北中学校" }, "geometry": { "type": "Point", "coordinates": [ 139.728795, 35.741591 ] } },
{ "type": "Feature", "properties": { "P29_001": "13116", "P29_005": "池袋中学校", "P29_006": "池袋本町4-5-24", "x": 139.714546, "y": 35.741924, "label": "池袋中学校" }, "geometry": { "type": "Point", "coordinates": [ 139.714546, 35.741924 ] } },
{ "type": "Feature", "properties": { "P29_001": "13116", "P29_005": "豊島岡女子学園中学校", "P29_006": "東池袋1-25-22", "x": 139.716658, "y": 35.728120, "label": "豊島岡女子学園中学校" }, "geometry": { "type": "Point", "coordinates": [ 139.716658, 35.72812 ] } },
{ "type": "Feature", "properties": { "P29_001": "13116", "P29_005": "本郷中学校", "P29_006": "駒込4-11-1", "x": 139.740822, "y": 35.736286, "label": "本郷中学校" }, "geometry": { "type": "Point", "coordinates": [ 139.740822, 35.736286 ] } },
{ "type": "Feature", "properties": { "P29_001": "13116", "P29_005": "明豊中学校", "P29_006": "長崎5-31-29", "x": 139.684382, "y": 35.736007, "label": "明豊中学校" }, "geometry": { "type": "Point", "coordinates": [ 139.684382, 35.736007 ] } },
{ "type": "Feature", "properties": { "P29_001": "13116", "P29_005": "立教池袋中学校", "P29_006": "西池袋5-16-5", "x": 139.701995, "y": 35.731182, "label": "立教池袋中学校" }, "geometry": { "type": "Point", "coordinates": [ 139.701995, 35.731182 ] } },
{ "type": "Feature", "properties": { "P29_001": "13117", "P29_005": "稲付中学校", "P29_006": "赤羽西6-1-4", "x": 139.707879, "y": 35.770698, "label": "稲付中学校" }, "geometry": { "type": "Point", "coordinates": [ 139.707879, 35.770698 ] } },
{ "type": "Feature", "properties": { "P29_001": "13117", "P29_005": "王子桜中学校", "P29_006": "王子2-7-1", "x": 139.735745, "y": 35.758666, "label": "王子桜中学校" }, "geometry": { "type": "Point", "coordinates": [ 139.735744518878789, 35.758666494071953 ] } },
{ "type": "Feature", "properties": { "P29_001": "13117", "P29_005": "桐ケ丘中学校", "P29_006": "桐ヶ丘2-6-11", "x": 139.708332, "y": 35.779725, "label": "桐ケ丘中学校" }, "geometry": { "type": "Point", "coordinates": [ 139.708332249046521, 35.779725334866221 ] } },
{ "type": "Feature", "properties": { "P29_001": "13117", "P29_005": "桜丘中学校", "P29_006": "滝野川1-51-12", "x": 139.735044, "y": 35.748257, "label": "桜丘中学校" }, "geometry": { "type": "Point", "coordinates": [ 139.735044, 35.748257 ] } },
{ "type": "Feature", "properties": { "P29_001": "13117", "P29_005": "駿台学園中学校", "P29_006": "王子6-1-10", "x": 139.739349, "y": 35.760339, "label": "駿台学園中学校" }, "geometry": { "type": "Point", "coordinates": [ 139.739349, 35.760339 ] } },
{ "type": "Feature", "properties": { "P29_001": "13117", "P29_005": "順天中学校", "P29_006": "王子本町1-17-13", "x": 139.734754, "y": 35.753576, "label": "順天中学校" }, "geometry": { "type": "Point", "coordinates": [ 139.734754, 35.753576 ] } },
{ "type": "Feature", "properties": { "P29_001": "13117", "P29_005": "女子聖学院中学校", "P29_006": "中里3-12-2", "x": 139.751654, "y": 35.741591, "label": "女子聖学院中学校" }, "geometry": { "type": "Point", "coordinates": [ 139.751654, 35.741591 ] } },
{ "type": "Feature", "properties": { "P29_001": "13117", "P29_005": "神谷中学校", "P29_006": "神谷2-46-13", "x": 139.729321, "y": 35.773615, "label": "神谷中学校" }, "geometry": { "type": "Point", "coordinates": [ 139.729321, 35.773615 ] } },
{ "type": "Feature", "properties": { "P29_001": "13117", "P29_005": "星美学園中学校", "P29_006": "赤羽台4-2-14", "x": 139.715794, "y": 35.784196, "label": "星美学園中学校" }, "geometry": { "type": "Point", "coordinates": [ 139.715794, 35.784196 ] } },
{ "type": "Feature", "properties": { "P29_001": "13117", "P29_005": "聖学院中学校", "P29_006": "中里3-12-1", "x": 139.750349, "y": 35.740702, "label": "聖学院中学校" }, "geometry": { "type": "Point", "coordinates": [ 139.750349, 35.740702 ] } },
{ "type": "Feature", "properties": { "P29_001": "13117", "P29_005": "瀧野川女子学園中学校", "P29_006": "上中里1-27-7", "x": 139.748571, "y": 35.745007, "label": "瀧野川女子学園中学校" }, "geometry": { "type": "Point", "coordinates": [ 139.748571, 35.745007 ] } },
{ "type": "Feature", "properties": { "P29_001": "13117", "P29_005": "田端中学校", "P29_006": "田端6-9-1", "x": 139.755737, "y": 35.741453, "label": "田端中学校" }, "geometry": { "type": "Point", "coordinates": [ 139.755737, 35.741453 ] } },
{ "type": "Feature", "properties": { "P29_001": "13117", "P29_005": "東京成徳大学中学校", "P29_006": "豊島8-26-9", "x": 139.739265, "y": 35.767060, "label": "東京成徳大学中学校" }, "geometry": { "type": "Point", "coordinates": [ 139.739265, 35.76706 ] } },
{ "type": "Feature", "properties": { "P29_001": "13117", "P29_005": "飛鳥中学校", "P29_006": "西ヶ原3-5-12", "x": 139.748182, "y": 35.742508, "label": "飛鳥中学校" }, "geometry": { "type": "Point", "coordinates": [ 139.748182, 35.742508 ] } },
{ "type": "Feature", "properties": { "P29_001": "13117", "P29_005": "浮間中学校", "P29_006": "浮間4-29-32", "x": 139.692963, "y": 35.790389, "label": "浮間中学校" }, "geometry": { "type": "Point", "coordinates": [ 139.692963, 35.790389 ] } },
{ "type": "Feature", "properties": { "P29_001": "13117", "P29_005": "武蔵野中学校", "P29_006": "西ヶ原4-56-20", "x": 139.734961, "y": 35.741896, "label": "武蔵野中学校" }, "geometry": { "type": "Point", "coordinates": [ 139.734961, 35.741896 ] } },
{ "type": "Feature", "properties": { "P29_001": "13117", "P29_005": "堀船中学校", "P29_006": "堀船2-23-20", "x": 139.747209, "y": 35.755701, "label": "堀船中学校" }, "geometry": { "type": "Point", "coordinates": [ 139.747209, 35.755701 ] } },
{ "type": "Feature", "properties": { "P29_001": "13117", "P29_005": "京北中学校", "P29_006": "赤羽台1-7-12", "x": 139.715523, "y": 35.780840, "label": "京北中学校" }, "geometry": { "type": "Point", "coordinates": [ 139.715522900934417, 35.7808402045858 ] } },
{ "type": "Feature", "properties": { "P29_001": "13117", "P29_005": "明桜中学校", "P29_006": "王子6-3-23", "x": 139.742095, "y": 35.760053, "label": "明桜中学校" }, "geometry": { "type": "Point", "coordinates": [ 139.742094778318119, 35.760052921909747 ] } },
{ "type": "Feature", "properties": { "P29_001": "13117", "P29_005": "十条富士見中学校", "P29_006": "十条台1-9-33", "x": 139.723314, "y": 35.757248, "label": "十条富士見中学校" }, "geometry": { "type": "Point", "coordinates": [ 139.723314499177718, 35.757248328840056 ] } },
{ "type": "Feature", "properties": { "P29_001": "13117", "P29_005": "成立学園中学校", "P29_006": "東十条6-9-13", "x": 139.724750, "y": 35.771731, "label": "成立学園中学校" }, "geometry": { "type": "Point", "coordinates": [ 139.72475010071031, 35.771731305591778 ] } },
{ "type": "Feature", "properties": { "P29_001": "13117", "P29_005": "赤羽岩淵中学校", "P29_006": "志茂1-19-14", "x": 139.727283, "y": 35.777312, "label": "赤羽岩淵中学校" }, "geometry": { "type": "Point", "coordinates": [ 139.727282564859905, 35.777311510036142 ] } },
{ "type": "Feature", "properties": { "P29_001": "13117", "P29_005": "滝野川紅葉中学校", "P29_006": "滝野川5-55-8", "x": 139.724925, "y": 35.749924, "label": "滝野川紅葉中学校" }, "geometry": { "type": "Point", "coordinates": [ 139.724924994087672, 35.749923912364864 ] } },
{ "type": "Feature", "properties": { "P29_001": "13118", "P29_005": "開成中学校", "P29_006": "西日暮里4-7-7", "x": 139.764043, "y": 35.732954, "label": "開成中学校" }, "geometry": { "type": "Point", "coordinates": [ 139.764043, 35.732954 ] } },
{ "type": "Feature", "properties": { "P29_001": "13118", "P29_005": "原中学校", "P29_006": "町屋5-12-6", "x": 139.779457, "y": 35.751091, "label": "原中学校" }, "geometry": { "type": "Point", "coordinates": [ 139.779457, 35.751091 ] } },
{ "type": "Feature", "properties": { "P29_001": "13118", "P29_005": "諏訪台中学校", "P29_006": "西日暮里2-36-8", "x": 139.771820, "y": 35.732677, "label": "諏訪台中学校" }, "geometry": { "type": "Point", "coordinates": [ 139.77182, 35.732677 ] } },
{ "type": "Feature", "properties": { "P29_001": "13118", "P29_005": "第一中学校", "P29_006": "荒川1-30-1", "x": 139.787930, "y": 35.734705, "label": "第一中学校" }, "geometry": { "type": "Point", "coordinates": [ 139.78793, 35.734705 ] } },
{ "type": "Feature", "properties": { "P29_001": "13118", "P29_005": "第九中学校", "P29_006": "東尾久2-23-5", "x": 139.772653, "y": 35.743231, "label": "第九中学校" }, "geometry": { "type": "Point", "coordinates": [ 139.772653, 35.743231 ] } },
{ "type": "Feature", "properties": { "P29_001": "13118", "P29_005": "第五中学校", "P29_006": "町屋1-37-16", "x": 139.787235, "y": 35.744426, "label": "第五中学校" }, "geometry": { "type": "Point", "coordinates": [ 139.787235, 35.744426 ] } },
{ "type": "Feature", "properties": { "P29_001": "13118", "P29_005": "第三中学校", "P29_006": "南千住8-10-1", "x": 139.811182, "y": 35.737755, "label": "第三中学校" }, "geometry": { "type": "Point", "coordinates": [ 139.811182044336363, 35.737754476597651 ] } },
{ "type": "Feature", "properties": { "P29_001": "13118", "P29_005": "第四中学校", "P29_006": "荒川6-57-1", "x": 139.775708, "y": 35.741315, "label": "第四中学校" }, "geometry": { "type": "Point", "coordinates": [ 139.775708, 35.741315 ] } },
{ "type": "Feature", "properties": { "P29_001": "13118", "P29_005": "第七中学校", "P29_006": "西尾久4-30-28", "x": 139.758153, "y": 35.746536, "label": "第七中学校" }, "geometry": { "type": "Point", "coordinates": [ 139.758153, 35.746536 ] } },
{ "type": "Feature", "properties": { "P29_001": "13118", "P29_005": "南千住第二中学校", "P29_006": "南千住7-25-1", "x": 139.799818, "y": 35.736066, "label": "南千住第二中学校" }, "geometry": { "type": "Point", "coordinates": [ 139.799818, 35.736066 ] } },
{ "type": "Feature", "properties": { "P29_001": "13118", "P29_005": "尾久八幡中学校", "P29_006": "西尾久3-13-1", "x": 139.764791, "y": 35.752868, "label": "尾久八幡中学校" }, "geometry": { "type": "Point", "coordinates": [ 139.764791, 35.752868 ] } },
{ "type": "Feature", "properties": { "P29_001": "13118", "P29_005": "北豊島中学校", "P29_006": "東尾久6-34-24", "x": 139.773763, "y": 35.749175, "label": "北豊島中学校" }, "geometry": { "type": "Point", "coordinates": [ 139.773763, 35.749175 ] } },
{ "type": "Feature", "properties": { "P29_001": "13119", "P29_005": "加賀中学校", "P29_006": "加賀2-19-1", "x": 139.716073, "y": 35.760560, "label": "加賀中学校" }, "geometry": { "type": "Point", "coordinates": [ 139.716073, 35.76056 ] } },
{ "type": "Feature", "properties": { "P29_001": "13119", "P29_005": "向原中学校", "P29_006": "向原3-1-12", "x": 139.685576, "y": 35.744089, "label": "向原中学校" }, "geometry": { "type": "Point", "coordinates": [ 139.685576, 35.744089 ] } },
{ "type": "Feature", "properties": { "P29_001": "13119", "P29_005": "高島第一中学校", "P29_006": "高島平8-26-1", "x": 139.662938, "y": 35.791860, "label": "高島第一中学校" }, "geometry": { "type": "Point", "coordinates": [ 139.662938, 35.79186 ] } },
{ "type": "Feature", "properties": { "P29_001": "13119", "P29_005": "高島第三中学校", "P29_006": "高島平4-22-1", "x": 139.651078, "y": 35.788305, "label": "高島第三中学校" }, "geometry": { "type": "Point", "coordinates": [ 139.651078, 35.788305 ] } },
{ "type": "Feature", "properties": { "P29_001": "13119", "P29_005": "高島第二中学校", "P29_006": "高島平2-24-1", "x": 139.660466, "y": 35.785306, "label": "高島第二中学校" }, "geometry": { "type": "Point", "coordinates": [ 139.660466, 35.785306 ] } },
{ "type": "Feature", "properties": { "P29_001": "13119", "P29_005": "桜川中学校", "P29_006": "桜川1-2-1", "x": 139.677132, "y": 35.756143, "label": "桜川中学校" }, "geometry": { "type": "Point", "coordinates": [ 139.677132, 35.756143 ] } },
{ "type": "Feature", "properties": { "P29_001": "13119", "P29_005": "志村第一中学校", "P29_006": "大原町33-1", "x": 139.696991, "y": 35.767254, "label": "志村第一中学校" }, "geometry": { "type": "Point", "coordinates": [ 139.696991, 35.767254 ] } },
{ "type": "Feature", "properties": { "P29_001": "13119", "P29_005": "志村第五中学校", "P29_006": "坂下2-1-20", "x": 139.686158, "y": 35.782335, "label": "志村第五中学校" }, "geometry": { "type": "Point", "coordinates": [ 139.686158, 35.782335 ] } },
{ "type": "Feature", "properties": { "P29_001": "13119", "P29_005": "志村第三中学校", "P29_006": "坂下2-21-1", "x": 139.683547, "y": 35.783501, "label": "志村第三中学校" }, "geometry": { "type": "Point", "coordinates": [ 139.683547, 35.783501 ] } },
{ "type": "Feature", "properties": { "P29_001": "13119", "P29_005": "志村第四中学校", "P29_006": "志村3-15-1", "x": 139.683992, "y": 35.776530, "label": "志村第四中学校" }, "geometry": { "type": "Point", "coordinates": [ 139.683992, 35.77653 ] } },
{ "type": "Feature", "properties": { "P29_001": "13119", "P29_005": "志村第二中学校", "P29_006": "小豆沢1-21-1", "x": 139.702823, "y": 35.775475, "label": "志村第二中学校" }, "geometry": { "type": "Point", "coordinates": [ 139.702823, 35.775475 ] } },
{ "type": "Feature", "properties": { "P29_001": "13119", "P29_005": "芝浦工業大学中学校", "P29_006": "坂下2-2-1", "x": 139.685686, "y": 35.782974, "label": "芝浦工業大学中学校" }, "geometry": { "type": "Point", "coordinates": [ 139.685686, 35.782974 ] } },
{ "type": "Feature", "properties": { "P29_001": "13119", "P29_005": "淑徳中学校", "P29_006": "前野町5-14-1", "x": 139.684825, "y": 35.769225, "label": "淑徳中学校" }, "geometry": { "type": "Point", "coordinates": [ 139.684825, 35.769225 ] } },
{ "type": "Feature", "properties": { "P29_001": "13119", "P29_005": "上板橋第一中学校", "P29_006": "南常盤台1-1-1", "x": 139.691270, "y": 35.756949, "label": "上板橋第一中学校" }, "geometry": { "type": "Point", "coordinates": [ 139.69127, 35.756949 ] } },
{ "type": "Feature", "properties": { "P29_001": "13119", "P29_005": "上板橋第三中学校", "P29_006": "常盤台3-30-1", "x": 139.682298, "y": 35.763531, "label": "上板橋第三中学校" }, "geometry": { "type": "Point", "coordinates": [ 139.682298, 35.763531 ] } },
{ "type": "Feature", "properties": { "P29_001": "13119", "P29_005": "上板橋第二中学校", "P29_006": "小茂根1-2-1", "x": 139.680910, "y": 35.747311, "label": "上板橋第二中学校" }, "geometry": { "type": "Point", "coordinates": [ 139.68091, 35.747311 ] } },
{ "type": "Feature", "properties": { "P29_001": "13119", "P29_005": "城北中学校", "P29_006": "東新町2-28-1", "x": 139.678548, "y": 35.756504, "label": "城北中学校" }, "geometry": { "type": "Point", "coordinates": [ 139.678548, 35.756504 ] } },
{ "type": "Feature", "properties": { "P29_001": "13119", "P29_005": "西台中学校", "P29_006": "高島平1-4-1", "x": 139.671798, "y": 35.781862, "label": "西台中学校" }, "geometry": { "type": "Point", "coordinates": [ 139.671798, 35.781862 ] } },
{ "type": "Feature", "properties": { "P29_001": "13119", "P29_005": "赤塚第一中学校", "P29_006": "徳丸4-13-1", "x": 139.652300, "y": 35.771724, "label": "赤塚第一中学校" }, "geometry": { "type": "Point", "coordinates": [ 139.6523, 35.771724 ] } },
{ "type": "Feature", "properties": { "P29_001": "13119", "P29_005": "赤塚第三中学校", "P29_006": "赤塚7-27-15", "x": 139.648050, "y": 35.779751, "label": "赤塚第三中学校" }, "geometry": { "type": "Point", "coordinates": [ 139.64805, 35.779751 ] } },
{ "type": "Feature", "properties": { "P29_001": "13119", "P29_005": "赤塚第二中学校", "P29_006": "成増3-18-1", "x": 139.633135, "y": 35.780639, "label": "赤塚第二中学校" }, "geometry": { "type": "Point", "coordinates": [ 139.633135, 35.780639 ] } },
{ "type": "Feature", "properties": { "P29_001": "13119", "P29_005": "中台中学校", "P29_006": "中台1-56-23", "x": 139.680187, "y": 35.769308, "label": "中台中学校" }, "geometry": { "type": "Point", "coordinates": [ 139.680187, 35.769308 ] } },
{ "type": "Feature", "properties": { "P29_001": "13119", "P29_005": "帝京中学校", "P29_006": "稲荷台27-1", "x": 139.711807, "y": 35.760606, "label": "帝京中学校" }, "geometry": { "type": "Point", "coordinates": [ 139.711807, 35.760606 ] } },
{ "type": "Feature", "properties": { "P29_001": "13119", "P29_005": "東京家政大学附属女子中学校", "P29_006": "加賀1-18-1", "x": 139.719906, "y": 35.755006, "label": "東京家政大学附属女子中学校" }, "geometry": { "type": "Point", "coordinates": [ 139.719906, 35.755006 ] } },
{ "type": "Feature", "properties": { "P29_001": "13119", "P29_005": "日本大学豊山女子中学校", "P29_006": "中台3-15-1", "x": 139.678159, "y": 35.771169, "label": "日本大学豊山女子中学校" }, "geometry": { "type": "Point", "coordinates": [ 139.678159, 35.771169 ] } },
{ "type": "Feature", "properties": { "P29_001": "13119", "P29_005": "板橋第一中学校", "P29_006": "大山東町50-1", "x": 139.704797, "y": 35.750422, "label": "板橋第一中学校" }, "geometry": { "type": "Point", "coordinates": [ 139.704797, 35.750422 ] } },
{ "type": "Feature", "properties": { "P29_001": "13119", "P29_005": "板橋第五中学校", "P29_006": "板橋4-49-3", "x": 139.719601, "y": 35.752367, "label": "板橋第五中学校" }, "geometry": { "type": "Point", "coordinates": [ 139.719601, 35.752367 ] } },
{ "type": "Feature", "properties": { "P29_001": "13119", "P29_005": "板橋第三中学校", "P29_006": "氷川町22-3", "x": 139.706629, "y": 35.755700, "label": "板橋第三中学校" }, "geometry": { "type": "Point", "coordinates": [ 139.706629, 35.7557 ] } },
{ "type": "Feature", "properties": { "P29_001": "13119", "P29_005": "板橋第二中学校", "P29_006": "幸町26-1", "x": 139.697409, "y": 35.745534, "label": "板橋第二中学校" }, "geometry": { "type": "Point", "coordinates": [ 139.697409, 35.745534 ] } },
{ "type": "Feature", "properties": { "P29_001": "13120", "P29_005": "旭丘中学校", "P29_006": "旭丘2-40-1", "x": 139.677772, "y": 35.737784, "label": "旭丘中学校" }, "geometry": { "type": "Point", "coordinates": [ 139.677772, 35.737784 ] } },
{ "type": "Feature", "properties": { "P29_001": "13120", "P29_005": "開進第一中学校", "P29_006": "早宮1-16-50", "x": 139.659661, "y": 35.752643, "label": "開進第一中学校" }, "geometry": { "type": "Point", "coordinates": [ 139.659661, 35.752643 ] } },
{ "type": "Feature", "properties": { "P29_001": "13120", "P29_005": "開進第三中学校", "P29_006": "桜台3-28-1", "x": 139.665633, "y": 35.745811, "label": "開進第三中学校" }, "geometry": { "type": "Point", "coordinates": [ 139.665633, 35.745811 ] } },
{ "type": "Feature", "properties": { "P29_001": "13120", "P29_005": "開進第四中学校", "P29_006": "羽沢3-24-1", "x": 139.673382, "y": 35.751005, "label": "開進第四中学校" }, "geometry": { "type": "Point", "coordinates": [ 139.673382, 35.751005 ] } },
{ "type": "Feature", "properties": { "P29_001": "13120", "P29_005": "開進第二中学校", "P29_006": "練馬2-27-28", "x": 139.652912, "y": 35.743338, "label": "開進第二中学校" }, "geometry": { "type": "Point", "coordinates": [ 139.652912, 35.743338 ] } },
{ "type": "Feature", "properties": { "P29_001": "13120", "P29_005": "貫井中学校", "P29_006": "貫井2-14-13", "x": 139.633359, "y": 35.739616, "label": "貫井中学校" }, "geometry": { "type": "Point", "coordinates": [ 139.633359, 35.739616 ] } },
{ "type": "Feature", "properties": { "P29_001": "13120", "P29_005": "関中学校", "P29_006": "関町北4-34-23", "x": 139.575614, "y": 35.730838, "label": "関中学校" }, "geometry": { "type": "Point", "coordinates": [ 139.575614, 35.730838 ] } },
{ "type": "Feature", "properties": { "P29_001": "13120", "P29_005": "光が丘第一中学校", "P29_006": "光が丘6-5-1", "x": 139.622442, "y": 35.760002, "label": "光が丘第一中学校" }, "geometry": { "type": "Point", "coordinates": [ 139.622442, 35.760002 ] } },
{ "type": "Feature", "properties": { "P29_001": "13120", "P29_005": "光が丘第三中学校", "P29_006": "光が丘3-2-1", "x": 139.631386, "y": 35.755059, "label": "光が丘第三中学校" }, "geometry": { "type": "Point", "coordinates": [ 139.631386, 35.755059 ] } },
{ "type": "Feature", "properties": { "P29_001": "13120", "P29_005": "光が丘第四中学校", "P29_006": "光が丘2-5-1", "x": 139.633497, "y": 35.761697, "label": "光が丘第四中学校" }, "geometry": { "type": "Point", "coordinates": [ 139.633497, 35.761697 ] } },
{ "type": "Feature", "properties": { "P29_001": "13120", "P29_005": "光が丘第二中学校", "P29_006": "光が丘7-1-1", "x": 139.626053, "y": 35.754531, "label": "光が丘第二中学校" }, "geometry": { "type": "Point", "coordinates": [ 139.626053, 35.754531 ] } },
{ "type": "Feature", "properties": { "P29_001": "13120", "P29_005": "三原台中学校", "P29_006": "三原台3-13-41", "x": 139.600277, "y": 35.754558, "label": "三原台中学校" }, "geometry": { "type": "Point", "coordinates": [ 139.600277, 35.754558 ] } },
{ "type": "Feature", "properties": { "P29_001": "13120", "P29_005": "上石神井中学校", "P29_006": "上石神井4-15-27", "x": 139.587974, "y": 35.728533, "label": "上石神井中学校" }, "geometry": { "type": "Point", "coordinates": [ 139.587974, 35.728533 ] } },
{ "type": "Feature", "properties": { "P29_001": "13120", "P29_005": "石神井西中学校", "P29_006": "関町南3-10-3", "x": 139.580753, "y": 35.720617, "label": "石神井西中学校" }, "geometry": { "type": "Point", "coordinates": [ 139.580753, 35.720617 ] } },
{ "type": "Feature", "properties": { "P29_001": "13120", "P29_005": "石神井中学校", "P29_006": "石神井台1-32-1", "x": 139.595778, "y": 35.741171, "label": "石神井中学校" }, "geometry": { "type": "Point", "coordinates": [ 139.595778, 35.741171 ] } },
{ "type": "Feature", "properties": { "P29_001": "13120", "P29_005": "石神井東中学校", "P29_006": "高野台1-8-34", "x": 139.616915, "y": 35.742449, "label": "石神井東中学校" }, "geometry": { "type": "Point", "coordinates": [ 139.616915, 35.742449 ] } },
{ "type": "Feature", "properties": { "P29_001": "13120", "P29_005": "石神井南中学校", "P29_006": "下石神井2-7-23", "x": 139.609028, "y": 35.730422, "label": "石神井南中学校" }, "geometry": { "type": "Point", "coordinates": [ 139.609028, 35.730422 ] } },
{ "type": "Feature", "properties": { "P29_001": "13120", "P29_005": "大泉学園桜中学校", "P29_006": "大泉学園町9-2-1", "x": 139.590808, "y": 35.777288, "label": "大泉学園桜中学校" }, "geometry": { "type": "Point", "coordinates": [ 139.590807747139479, 35.777288234982841 ] } },
{ "type": "Feature", "properties": { "P29_001": "13120", "P29_005": "大泉学園中学校", "P29_006": "大泉学園町4-17-32", "x": 139.589861, "y": 35.766667, "label": "大泉学園中学校" }, "geometry": { "type": "Point", "coordinates": [ 139.589861, 35.766667 ] } },
{ "type": "Feature", "properties": { "P29_001": "13120", "P29_005": "大泉西中学校", "P29_006": "西大泉3-19-27", "x": 139.579946, "y": 35.758390, "label": "大泉西中学校" }, "geometry": { "type": "Point", "coordinates": [ 139.579946, 35.75839 ] } },
{ "type": "Feature", "properties": { "P29_001": "13120", "P29_005": "大泉第二中学校", "P29_006": "東大泉6-21-1", "x": 139.584724, "y": 35.744642, "label": "大泉第二中学校" }, "geometry": { "type": "Point", "coordinates": [ 139.584724, 35.744642 ] } },
{ "type": "Feature", "properties": { "P29_001": "13120", "P29_005": "大泉中学校", "P29_006": "東大泉4-27-35", "x": 139.585251, "y": 35.752308, "label": "大泉中学校" }, "geometry": { "type": "Point", "coordinates": [ 139.585251, 35.752308 ] } },
{ "type": "Feature", "properties": { "P29_001": "13120", "P29_005": "大泉北中学校", "P29_006": "大泉町5-4-32", "x": 139.596278, "y": 35.759418, "label": "大泉北中学校" }, "geometry": { "type": "Point", "coordinates": [ 139.596278, 35.759418 ] } },
{ "type": "Feature", "properties": { "P29_001": "13120", "P29_005": "谷原中学校", "P29_006": "谷原4-10-5", "x": 139.615193, "y": 35.754808, "label": "谷原中学校" }, "geometry": { "type": "Point", "coordinates": [ 139.615193, 35.754808 ] } },
{ "type": "Feature", "properties": { "P29_001": "13120", "P29_005": "中村中学校", "P29_006": "中村南1-32-21", "x": 139.645414, "y": 35.728284, "label": "中村中学校" }, "geometry": { "type": "Point", "coordinates": [ 139.645414, 35.728284 ] } },
{ "type": "Feature", "properties": { "P29_001": "13120", "P29_005": "田柄中学校", "P29_006": "田柄3-3-1", "x": 139.641690, "y": 35.759725, "label": "田柄中学校" }, "geometry": { "type": "Point", "coordinates": [ 139.64169, 35.759725 ] } },
{ "type": "Feature", "properties": { "P29_001": "13120", "P29_005": "東京女子学院中学校", "P29_006": "関町北4-16-11", "x": 139.573781, "y": 35.728949, "label": "東京女子学院中学校" }, "geometry": { "type": "Point", "coordinates": [ 139.573781, 35.728949 ] } },
{ "type": "Feature", "properties": { "P29_001": "13120", "P29_005": "南が丘中学校", "P29_006": "南田中4-8-23", "x": 139.613027, "y": 35.733866, "label": "南が丘中学校" }, "geometry": { "type": "Point", "coordinates": [ 139.613027, 35.733866 ] } },
{ "type": "Feature", "properties": { "P29_001": "13120", "P29_005": "八坂中学校", "P29_006": "土支田4-47-21", "x": 139.612220, "y": 35.769779, "label": "八坂中学校" }, "geometry": { "type": "Point", "coordinates": [ 139.61222, 35.769779 ] } },
{ "type": "Feature", "properties": { "P29_001": "13120", "P29_005": "富士見中学校", "P29_006": "中村北4-8-26", "x": 139.637053, "y": 35.735617, "label": "富士見中学校" },