{
   "type": "FeatureCollection",
   "features": [
  {
    "type": "Feature",
    "geometry": {
       "type": "Point",
       "coordinates":  [ 139.7391,35.6864 ]
    },
    "properties": {
    "HID":1001001,
    "Type":"認可保育所",
    "Name":"ポピンズナーサリースクール一番町",
    "Label":"ポピンズナーサリースクール一番町",
    "Full":80,
    "Add1":"東京都千代田区",
    "Add2":"一番町１０番地８一番町ウエストビル３階、４階",
    "TEL":"--",
    "url":"",
    "Vacancy":"",
    "VacancyDate":"",
    "sourceNo":12,
    "uncertain":"1"
    }
  },
  {
    "type": "Feature",
    "geometry": {
       "type": "Point",
       "coordinates":  [ 139.7530,35.6988 ]
    },
    "properties": {
    "HID":1001002,
    "Type":"認可保育所",
    "Name":"ほっぺるランド西神田",
    "Label":"ほっぺるランド西神田",
    "Full":70,
    "Add1":"千代田区",
    "Add2":"西神田三丁目５番２号千代田ファーストビル西館１階",
    "TEL":"--",
    "url":"",
    "Vacancy":"",
    "VacancyDate":"",
    "sourceNo":10,
    "uncertain":"1"
    }
  },
  {
    "type": "Feature",
    "geometry": {
       "type": "Point",
       "coordinates":  [ 139.7381,35.6864 ]
    },
    "properties": {
    "HID":1001003,
    "Type":"認可保育所",
    "Name":"アスク二番町保育園",
    "Label":"アスク二番町保育園",
    "Full":100,
    "Add1":"東京都千代田区",
    "Add2":"二番町２−１二番町ＴＳビル１〜３階",
    "TEL":"--",
    "url":"",
    "Vacancy":"",
    "VacancyDate":"",
    "sourceNo":10,
    "uncertain":"1"
    }
  },
  {
    "type": "Feature",
    "geometry": {
       "type": "Point",
       "coordinates":  [ 139.7421,35.6903 ]
    },
    "properties": {
    "HID":1001004,
    "Type":"認可保育所",
    "Name":"麹町保育園",
    "Label":"麹町保育園",
    "Full":80,
    "Add1":"東京都千代田区",
    "Add2":"三番町七",
    "TEL":"03-3261-7960",
    "url":"",
    "Vacancy":"",
    "VacancyDate":"",
    "sourceNo":8,
    "uncertain":"0"
    }
  },
  {
    "type": "Feature",
    "geometry": {
       "type": "Point",
       "coordinates":  [ 139.7385,35.6882 ]
    },
    "properties": {
    "HID":1001005,
    "Type":"認可保育所",
    "Name":"四番町保育園",
    "Label":"四番町保育園",
    "Full":97,
    "Add1":"東京都千代田区",
    "Add2":"四番町１１",
    "TEL":"03-3234-2269",
    "url":"",
    "Vacancy":"",
    "VacancyDate":"",
    "sourceNo":8,
    "uncertain":"0"
    }
  },
  {
    "type": "Feature",
    "geometry": {
       "type": "Point",
       "coordinates":  [ 139.7687,35.6979 ]
    },
    "properties": {
    "HID":1001006,
    "Type":"認可保育所",
    "Name":"神田保育園",
    "Label":"神田保育園",
    "Full":120,
    "Add1":"東京都千代田区",
    "Add2":"神田淡路町２−１２",
    "TEL":"03-3253-6258",
    "url":"",
    "Vacancy":"",
    "VacancyDate":"",
    "sourceNo":8,
    "uncertain":"0"
    }
  },
  {
    "type": "Feature",
    "geometry": {
       "type": "Point",
       "coordinates":  [ 139.7765,35.6992 ]
    },
    "properties": {
    "HID":1001007,
    "Type":"認可保育所",
    "Name":"いずみこども園",
    "Label":"いずみこども園",
    "Full":36,
    "Add1":"東京都千代田区",
    "Add2":"神田和泉町１",
    "TEL":"03-3866-9938",
    "url":"",
    "Vacancy":"",
    "VacancyDate":"",
    "sourceNo":8,
    "uncertain":"0"
    }
  },
  {
    "type": "Feature",
    "geometry": {
       "type": "Point",
       "coordinates":  [ 139.7548,35.6987 ]
    },
    "properties": {
    "HID":1001008,
    "Type":"認可保育所",
    "Name":"西神田保育園",
    "Label":"西神田保育園",
    "Full":99,
    "Add1":"東京都千代田区",
    "Add2":"西神田２−６−２",
    "TEL":"03-5215-9060",
    "url":"",
    "Vacancy":"",
    "VacancyDate":"",
    "sourceNo":8,
    "uncertain":"0"
    }
  },
  {
    "type": "Feature",
    "geometry": {
       "type": "Point",
       "coordinates":  [ 139.7457,35.6972 ]
    },
    "properties": {
    "HID":1001009,
    "Type":"認可保育所",
    "Name":"千代田区立ふじみこども園",
    "Label":"千代田区立ふじみこども園",
    "Full":55,
    "Add1":"東京都千代田区",
    "Add2":"富士見１−１０−３",
    "TEL":"03-3263-1009",
    "url":"",
    "Vacancy":"",
    "VacancyDate":"",
    "sourceNo":8,
    "uncertain":"0"
    }
  },
  {
    "type": "Feature",
    "geometry": {
       "type": "Point",
       "coordinates":  [ 139.7850,35.6559 ]
    },
    "properties": {
    "HID":1002001,
    "Type":"認可保育所",
    "Name":"晴海こども園",
    "Label":"晴海こども園",
    "Full":105,
    "Add1":"東京都中央区",
    "Add2":"晴海二丁目4番31号",
    "TEL":"03-3534-3551",
    "url":"",
    "Vacancy":"",
    "VacancyDate":"",
    "sourceNo":10,
    "uncertain":"1"
    }
  },
  {
    "type": "Feature",
    "geometry": {
       "type": "Point",
       "coordinates":  [ 139.7734,35.6761 ]
    },
    "properties": {
    "HID":1002002,
    "Type":"認可保育所",
    "Name":"京橋こども園",
    "Label":"京橋こども園",
    "Full":60,
    "Add1":"東京都中央区",
    "Add2":"京橋二丁目１７番７号",
    "TEL":"--",
    "url":"",
    "Vacancy":"",
    "VacancyDate":"",
    "sourceNo":10,
    "uncertain":"1"
    }
  },
  {
    "type": "Feature",
    "geometry": {
       "type": "Point",
       "coordinates":  [ 139.7853,35.6766 ]
    },
    "properties": {
    "HID":1002003,
    "Type":"認可保育所",
    "Name":"太陽の子新川保育園",
    "Label":"太陽の子新川保育園",
    "Full":95,
    "Add1":"中央区",
    "Add2":"新川一丁目２４番１号秀和第２新川ビル２階",
    "TEL":"--",
    "url":"",
    "Vacancy":"",
    "VacancyDate":"",
    "sourceNo":10,
    "uncertain":"1"
    }
  },
  {
    "type": "Feature",
    "geometry": {
       "type": "Point",
       "coordinates":  [ 139.7791,35.6677 ]
    },
    "properties": {
    "HID":1002004,
    "Type":"認可保育所",
    "Name":"ぽけっとランド明石町保育園",
    "Label":"ぽけっとランド明石町保育園",
    "Full":91,
    "Add1":"中央区",
    "Add2":"明石町７番１５号",
    "TEL":"--",
    "url":"",
    "Vacancy":"",
    "VacancyDate":"",
    "sourceNo":10,
    "uncertain":"1"
    }
  },
  {
    "type": "Feature",
    "geometry": {
       "type": "Point",
       "coordinates":  [ 139.7858,35.6915 ]
    },
    "properties": {
    "HID":1002005,
    "Type":"認可保育所",
    "Name":"日生東日本橋保育園ひびき",
    "Label":"日生東日本橋保育園ひびき",
    "Full":90,
    "Add1":"中央区",
    "Add2":"東日本橋一丁目５番１３号セイワ東日本橋ビル",
    "TEL":"--",
    "url":"",
    "Vacancy":"",
    "VacancyDate":"",
    "sourceNo":10,
    "uncertain":"1"
    }
  },
  {
    "type": "Feature",
    "geometry": {
       "type": "Point",
       "coordinates":  [ 139.7828,35.6833 ]
    },
    "properties": {
    "HID":1002006,
    "Type":"認可保育所",
    "Name":"グローバルキッズかきがら園",
    "Label":"グローバルキッズかきがら園",
    "Full":45,
    "Add1":"中央区",
    "Add2":"日本橋蛎殻町一丁目１６番１１号SF　BLDG１・２階",
    "TEL":"--",
    "url":"",
    "Vacancy":"",
    "VacancyDate":"",
    "sourceNo":10,
    "uncertain":"1"
    }
  },
  {
    "type": "Feature",
    "geometry": {
       "type": "Point",
       "coordinates":  [ 139.7835,35.6629 ]
    },
    "properties": {
    "HID":1002007,
    "Type":"認可保育所",
    "Name":"アンジェリカ月島保育園",
    "Label":"アンジェリカ月島保育園",
    "Full":100,
    "Add1":"中央区",
    "Add2":"月島二丁目１３番５号オルフェ月島ビル２階",
    "TEL":"--",
    "url":"",
    "Vacancy":"",
    "VacancyDate":"",
    "sourceNo":10,
    "uncertain":"1"
    }
  },
  {
    "type": "Feature",
    "geometry": {
       "type": "Point",
       "coordinates":  [ 139.7850,35.6567 ]
    },
    "properties": {
    "HID":1002008,
    "Type":"認可保育所",
    "Name":"ポピンズナーサリースクール晴海",
    "Label":"ポピンズナーサリースクール晴海",
    "Full":60,
    "Add1":"中央区",
    "Add2":"晴海二丁目１番４０号",
    "TEL":"--",
    "url":"",
    "Vacancy":"",
    "VacancyDate":"",
    "sourceNo":10,
    "uncertain":"1"
    }
  },
  {
    "type": "Feature",
    "geometry": {
       "type": "Point",
       "coordinates":  [ 139.7835,35.6640 ]
    },
    "properties": {
    "HID":1002009,
    "Type":"認可保育所",
    "Name":"太陽の子月島保育園",
    "Label":"太陽の子月島保育園",
    "Full":80,
    "Add1":"東京都中央区",
    "Add2":"月島１−５−２キャピタルゲートプレイス２階",
    "TEL":"03-5547-8343",
    "url":"",
    "Vacancy":"",
    "VacancyDate":"",
    "sourceNo":10,
    "uncertain":"1"
    }
  },
  {
    "type": "Feature",
    "geometry": {
       "type": "Point",
       "coordinates":  [ 139.7838,35.6633 ]
    },
    "properties": {
    "HID":1002010,
    "Type":"認可保育所",
    "Name":"月島保育園",
    "Label":"月島保育園",
    "Full":128,
    "Add1":"東京都中央区",
    "Add2":"月島２−１０−３",
    "TEL":"03-3531-6933",
    "url":"",
    "Vacancy":"",
    "VacancyDate":"",
    "sourceNo":8,
    "uncertain":"0"
    }
  },
  {
    "type": "Feature",
    "geometry": {
       "type": "Point",
       "coordinates":  [ 139.7832,35.6604 ]
    },
    "properties": {
    "HID":1002011,
    "Type":"認可保育所",
    "Name":"社会福祉法人ひかりの子月島聖ルカ保育園",
    "Label":"社会福祉法人ひかりの子月島聖ルカ保育園",
    "Full":101,
    "Add1":"東京都中央区",
    "Add2":"月島４−５−８",
    "TEL":"03-3533-6231",
    "url":"",
    "Vacancy":"",
    "VacancyDate":"",
    "sourceNo":8,
    "uncertain":"0"
    }
  },
  {
    "type": "Feature",
    "geometry": {
       "type": "Point",
       "coordinates":  [ 139.7770,35.6603 ]
    },
    "properties": {
    "HID":1002012,
    "Type":"認可保育所",
    "Name":"勝どき保育園",
    "Label":"勝どき保育園",
    "Full":128,
    "Add1":"東京都中央区",
    "Add2":"勝どき１−４−１",
    "TEL":"03-3531-5901",
    "url":"",
    "Vacancy":"",
    "VacancyDate":"",
    "sourceNo":8,
    "uncertain":"0"
    }
  },
  {
    "type": "Feature",
    "geometry": {
       "type": "Point",
       "coordinates":  [ 139.7769,35.6596 ]
    },
    "properties": {
    "HID":1002013,
    "Type":"認可保育所",
    "Name":"かちどき西保育園",
    "Label":"かちどき西保育園",
    "Full":120,
    "Add1":"東京都中央区",
    "Add2":"勝どき１−８−１",
    "TEL":"03-3534-7681",
    "url":"",
    "Vacancy":"",
    "VacancyDate":"",
    "sourceNo":10,
    "uncertain":"1"
    }
  },
  {
    "type": "Feature",
    "geometry": {
       "type": "Point",
       "coordinates":  [ 139.7748,35.6591 ]
    },
    "properties": {
    "HID":1002014,
    "Type":"認可保育所",
    "Name":"まなびの森保育園勝どき",
    "Label":"まなびの森保育園勝どき",
    "Full":70,
    "Add1":"東京都中央区",
    "Add2":"勝どき３−３−７　ＫＮリバーシティビル２Ｆ",
    "TEL":"03-6220-8786",
    "url":"",
    "Vacancy":"",
    "VacancyDate":"",
    "sourceNo":8,
    "uncertain":"0"
    }
  },
  {
    "type": "Feature",
    "geometry": {
       "type": "Point",
       "coordinates":  [ 139.7755,35.6569 ]
    },
    "properties": {
    "HID":1002015,
    "Type":"認可保育所",
    "Name":"アスク勝どき保育園",
    "Label":"アスク勝どき保育園",
    "Full":80,
    "Add1":"東京都中央区",
    "Add2":"勝どき４−８−１４",
    "TEL":"03-3536-7402",
    "url":"",
    "Vacancy":"",
    "VacancyDate":"",
    "sourceNo":8,
    "uncertain":"0"
    }
  },
  {
    "type": "Feature",
    "geometry": {
       "type": "Point",
       "coordinates":  [ 139.7744,35.6549 ]
    },
    "properties": {
    "HID":1002016,
    "Type":"認可保育所",
    "Name":"さわやか保育園　勝どき６丁目",
    "Label":"さわやか保育園　勝どき６丁目",
    "Full":105,
    "Add1":"東京都中央区",
    "Add2":"勝どき６‐３‐１ＴＨＥＴＯＫＹＯＴＯＷＥＲＳＳＥＡＴＯＷＥＲ３Ｆ",
    "TEL":"03-3531-8854",
    "url":"",
    "Vacancy":"",
    "VacancyDate":"",
    "sourceNo":8,
    "uncertain":"0"
    }
  },
  {
    "type": "Feature",
    "geometry": {
       "type": "Point",
       "coordinates":  [ 139.7844,35.6597 ]
    },
    "properties": {
    "HID":1002017,
    "Type":"認可保育所",
    "Name":"晴海保育園",
    "Label":"晴海保育園",
    "Full":107,
    "Add1":"東京都中央区",
    "Add2":"晴海１−５−１５",
    "TEL":"03-3533-1463",
    "url":"",
    "Vacancy":"",
    "VacancyDate":"",
    "sourceNo":8,
    "uncertain":"0"
    }
  },
  {
    "type": "Feature",
    "geometry": {
       "type": "Point",
       "coordinates":  [ 139.7791,35.6538 ]
    },
    "properties": {
    "HID":1002018,
    "Type":"認可保育所",
    "Name":"アスク晴海３丁目保育園",
    "Label":"アスク晴海３丁目保育園",
    "Full":45,
    "Add1":"東京都中央区",
    "Add2":"晴海３−１０−１　グラスシティ晴海１Ｆ",
    "TEL":"03-5547-8019",
    "url":"",
    "Vacancy":"",
    "VacancyDate":"",
    "sourceNo":8,
    "uncertain":"0"
    }
  },
  {
    "type": "Feature",
    "geometry": {
       "type": "Point",
       "coordinates":  [ 139.7681,35.6665 ]
    },
    "properties": {
    "HID":1002019,
    "Type":"認可保育所",
    "Name":"築地保育園",
    "Label":"築地保育園",
    "Full":123,
    "Add1":"東京都中央区",
    "Add2":"築地４−１５−１",
    "TEL":"03-3543-3156",
    "url":"",
    "Vacancy":"",
    "VacancyDate":"",
    "sourceNo":8,
    "uncertain":"0"
    }
  },
  {
    "type": "Feature",
    "geometry": {
       "type": "Point",
       "coordinates":  [ 139.7869,35.6669 ]
    },
    "properties": {
    "HID":1002020,
    "Type":"認可保育所",
    "Name":"つくだ保育園",
    "Label":"つくだ保育園",
    "Full":131,
    "Add1":"東京都中央区",
    "Add2":"佃２−２−２",
    "TEL":"03-3531-3595",
    "url":"",
    "Vacancy":"",
    "VacancyDate":"",
    "sourceNo":8,
    "uncertain":"0"
    }
  },
  {
    "type": "Feature",
    "geometry": {
       "type": "Point",
       "coordinates":  [ 139.7868,35.6665 ]
    },
    "properties": {
    "HID":1002021,
    "Type":"認可保育所",
    "Name":"みちてる保育園",
    "Label":"みちてる保育園",
    "Full":66,
    "Add1":"東京都中央区",
    "Add2":"佃２−２２−２",
    "TEL":"03-3531-8809",
    "url":"",
    "Vacancy":"",
    "VacancyDate":"",
    "sourceNo":8,
    "uncertain":"0"
    }
  },
  {
    "type": "Feature",
    "geometry": {
       "type": "Point",
       "coordinates":  [ 139.7836,35.6808 ]
    },
    "properties": {
    "HID":1002022,
    "Type":"認可保育所",
    "Name":"日本橋保育園",
    "Label":"日本橋保育園",
    "Full":91,
    "Add1":"東京都中央区",
    "Add2":"日本橋蛎殻町１−１−２",
    "TEL":"03-3666-9584",
    "url":"",
    "Vacancy":"",
    "VacancyDate":"",
    "sourceNo":8,
    "uncertain":"0"
    }
  },
  {
    "type": "Feature",
    "geometry": {
       "type": "Point",
       "coordinates":  [ 139.7769,35.6911 ]
    },
    "properties": {
    "HID":1002023,
    "Type":"認可保育所",
    "Name":"十思保育園",
    "Label":"十思保育園",
    "Full":85,
    "Add1":"東京都中央区",
    "Add2":"日本橋小伝馬町５−１",
    "TEL":"03-5651-3915",
    "url":"",
    "Vacancy":"",
    "VacancyDate":"",
    "sourceNo":8,
    "uncertain":"0"
    }
  },
  {
    "type": "Feature",
    "geometry": {
       "type": "Point",
       "coordinates":  [ 139.7849,35.6846 ]
    },
    "properties": {
    "HID":1002024,
    "Type":"認可保育所",
    "Name":"人形町保育園",
    "Label":"人形町保育園",
    "Full":105,
    "Add1":"東京都中央区",
    "Add2":"日本橋人形町２−１４−５",
    "TEL":"03-3669-3450",
    "url":"",
    "Vacancy":"",
    "VacancyDate":"",
    "sourceNo":8,
    "uncertain":"0"
    }
  },
  {
    "type": "Feature",
    "geometry": {
       "type": "Point",
       "coordinates":  [ 139.7914,35.6857 ]
    },
    "properties": {
    "HID":1002025,
    "Type":"認可保育所",
    "Name":"浜町保育園",
    "Label":"浜町保育園",
    "Full":125,
    "Add1":"東京都中央区",
    "Add2":"日本橋浜町３−３７−１",
    "TEL":"03-3668-2353",
    "url":"",
    "Vacancy":"",
    "VacancyDate":"",
    "sourceNo":8,
    "uncertain":"0"
    }
  },
  {
    "type": "Feature",
    "geometry": {
       "type": "Point",
       "coordinates":  [ 139.7790,35.6877 ]
    },
    "properties": {
    "HID":1002026,
    "Type":"認可保育所",
    "Name":"堀留町保育園",
    "Label":"堀留町保育園",
    "Full":72,
    "Add1":"東京都中央区",
    "Add2":"日本橋堀留町１−１−１",
    "TEL":"03-5641-0125",
    "url":"",
    "Vacancy":"",
    "VacancyDate":"",
    "sourceNo":8,
    "uncertain":"0"
    }
  },
  {
    "type": "Feature",
    "geometry": {
       "type": "Point",
       "coordinates":  [ 139.7815,35.6886 ]
    },
    "properties": {
    "HID":1002027,
    "Type":"認可保育所",
    "Name":"ほっぺるランド日本橋堀留町",
    "Label":"ほっぺるランド日本橋堀留町",
    "Full":70,
    "Add1":"東京都中央区",
    "Add2":"日本橋堀留町２−８−４日本橋コアビル１階",
    "TEL":"--",
    "url":"",
    "Vacancy":"",
    "VacancyDate":"",
    "sourceNo":10,
    "uncertain":"1"
    }
  },
  {
    "type": "Feature",
    "geometry": {
       "type": "Point",
       "coordinates":  [ 139.7782,35.6737 ]
    },
    "properties": {
    "HID":1002028,
    "Type":"認可保育所",
    "Name":"桜川保育園",
    "Label":"桜川保育園",
    "Full":115,
    "Add1":"東京都中央区",
    "Add2":"入船１−１−１３",
    "TEL":"03-3553-0020",
    "url":"",
    "Vacancy":"",
    "VacancyDate":"",
    "sourceNo":8,
    "uncertain":"0"
    }
  },
  {
    "type": "Feature",
    "geometry": {
       "type": "Point",
       "coordinates":  [ 139.7758,35.6739 ]
    },
    "properties": {
    "HID":1002029,
    "Type":"認可保育所",
    "Name":"八丁堀保育園",
    "Label":"八丁堀保育園",
    "Full":79,
    "Add1":"東京都中央区",
    "Add2":"八丁堀４−５−１０",
    "TEL":"03-3537-6551",
    "url":"",
    "Vacancy":"",
    "VacancyDate":"",
    "sourceNo":8,
    "uncertain":"0"
    }
  },
  {
    "type": "Feature",
    "geometry": {
       "type": "Point",
       "coordinates":  [ 139.7762,35.6668 ]
    },
    "properties": {
    "HID":1002030,
    "Type":"認可保育所",
    "Name":"明石町保育園",
    "Label":"明石町保育園",
    "Full":128,
    "Add1":"東京都中央区",
    "Add2":"明石町１２−１",
    "TEL":"03-3542-0020",
    "url":"",
    "Vacancy":"",
    "VacancyDate":"",
    "sourceNo":8,
    "uncertain":"0"
    }
  },
  {
    "type": "Feature",
    "geometry": {
       "type": "Point",
       "coordinates":  [ 139.7576,35.6589 ]
    },
    "properties": {
    "HID":1003001,
    "Type":"認可保育所",
    "Name":"神明保育園",
    "Label":"神明保育園",
    "Full":170,
    "Add1":"東京都港区",
    "Add2":"浜松町一丁目6番7号",
    "TEL":"03-5733-6822",
    "url":"",
    "Vacancy":"",
    "VacancyDate":"",
    "sourceNo":10,
    "uncertain":"1"
    }
  },
  {
    "type": "Feature",
    "geometry": {
       "type": "Point",
       "coordinates":  [ 139.7179,35.6651 ]
    },
    "properties": {
    "HID":1003002,
    "Type":"認可保育所",
    "Name":"小学館アカデミー南青山保育園",
    "Label":"小学館アカデミー南青山保育園",
    "Full":50,
    "Add1":"東京都港区",
    "Add2":"南青山4-15-8南青山246ビルＢ1，1，2Ｆ",
    "TEL":"--",
    "url":"",
    "Vacancy":"",
    "VacancyDate":"",
    "sourceNo":10,
    "uncertain":"1"
    }
  },
  {
    "type": "Feature",
    "geometry": {
       "type": "Point",
       "coordinates":  [ 139.7495,35.6303 ]
    },
    "properties": {
    "HID":1003003,
    "Type":"認可保育所",
    "Name":"たかはま保育園",
    "Label":"たかはま保育園",
    "Full":163,
    "Add1":"東京都港区",
    "Add2":"港南4-3-7　",
    "TEL":"03-5781-0255",
    "url":"",
    "Vacancy":"",
    "VacancyDate":"",
    "sourceNo":10,
    "uncertain":"1"
    }
  },
  {
    "type": "Feature",
    "geometry": {
       "type": "Point",
       "coordinates":  [ 139.7409,35.6632 ]
    },
    "properties": {
    "HID":1003004,
    "Type":"認可保育所",
    "Name":"まちの保育園六本木",
    "Label":"まちの保育園六本木",
    "Full":70,
    "Add1":"東京都港区",
    "Add2":"六本木1-9-10　アークヒルズ仙石山森タワー１階",
    "TEL":"03-6441-2478",
    "url":"",
    "Vacancy":"",
    "VacancyDate":"",
    "sourceNo":10,
    "uncertain":"1"
    }
  },
  {
    "type": "Feature",
    "geometry": {
       "type": "Point",
       "coordinates":  [ 139.7279,35.6574 ]
    },
    "properties": {
    "HID":1003005,
    "Type":"認可保育所",
    "Name":"あい保育園元麻布",
    "Label":"あい保育園元麻布",
    "Full":60,
    "Add1":"東京都港区",
    "Add2":"元麻布三丁目２番１９号MOMON六本木ビル２・１階",
    "TEL":"--",
    "url":"",
    "Vacancy":"",
    "VacancyDate":"",
    "sourceNo":10,
    "uncertain":"1"
    }
  },
  {
    "type": "Feature",
    "geometry": {
       "type": "Point",
       "coordinates":  [ 139.7333,35.6440 ]
    },
    "properties": {
    "HID":1003006,
    "Type":"認可保育所",
    "Name":"ゆらりん白金保育園",
    "Label":"ゆらりん白金保育園",
    "Full":51,
    "Add1":"港区",
    "Add2":"白金１丁目２６番１０号 白金K−FLAT１・２階 １０１・２０２号室",
    "TEL":"--",
    "url":"",
    "Vacancy":"",
    "VacancyDate":"",
    "sourceNo":10,
    "uncertain":"1"
    }
  },
  {
    "type": "Feature",
    "geometry": {
       "type": "Point",
       "coordinates":  [ 139.7254,35.6714 ]
    },
    "properties": {
    "HID":1003007,
    "Type":"認可保育所",
    "Name":"あい保育園青山一丁目",
    "Label":"あい保育園青山一丁目",
    "Full":60,
    "Add1":"港区",
    "Add2":"南青山一丁目３番１号青山一丁目タワー２階",
    "TEL":"--",
    "url":"",
    "Vacancy":"",
    "VacancyDate":"",
    "sourceNo":10,
    "uncertain":"1"
    }
  },
  {
    "type": "Feature",
    "geometry": {
       "type": "Point",
       "coordinates":  [ 139.7264,35.6468 ]
    },
    "properties": {
    "HID":1003008,
    "Type":"認可保育所",
    "Name":"太陽の子南麻布保育園",
    "Label":"太陽の子南麻布保育園",
    "Full":70,
    "Add1":"港区",
    "Add2":"南麻布四丁目１１番３０号南麻布渋谷ビル２階",
    "TEL":"--",
    "url":"",
    "Vacancy":"",
    "VacancyDate":"",
    "sourceNo":10,
    "uncertain":"1"
    }
  },
  {
    "type": "Feature",
    "geometry": {
       "type": "Point",
       "coordinates":  [ 139.7192,35.6673 ]
    },
    "properties": {
    "HID":1003009,
    "Type":"認可保育所",
    "Name":"太陽の子南青山保育園",
    "Label":"太陽の子南青山保育園",
    "Full":60,
    "Add1":"港区",
    "Add2":"南青山四丁目１番６号セブンダイヤモンド南青山ビル１，２階",
    "TEL":"--",
    "url":"",
    "Vacancy":"",
    "VacancyDate":"",
    "sourceNo":10,
    "uncertain":"1"
    }
  },
  {
    "type": "Feature",
    "geometry": {
       "type": "Point",
       "coordinates":  [ 139.7526,35.6452 ]
    },
    "properties": {
    "HID":1003010,
    "Type":"認可保育所",
    "Name":"太陽の子芝浦二丁目保育園",
    "Label":"太陽の子芝浦二丁目保育園",
    "Full":60,
    "Add1":"港区",
    "Add2":"芝浦二丁目１７番９号大友倉庫ビル１階",
    "TEL":"--",
    "url":"",
    "Vacancy":"",
    "VacancyDate":"",
    "sourceNo":10,
    "uncertain":"1"
    }
  },
  {
    "type": "Feature",
    "geometry": {
       "type": "Point",
       "coordinates":  [ 139.7471,35.6420 ]
    },
    "properties": {
    "HID":1003011,
    "Type":"認可保育所",
    "Name":"太陽の子芝浦三丁目保育園",
    "Label":"太陽の子芝浦三丁目保育園",
    "Full":54,
    "Add1":"港区",
    "Add2":"芝浦三丁目２０番２号山楽ビル２，３階",
    "TEL":"--",
    "url":"",
    "Vacancy":"",
    "VacancyDate":"",
    "sourceNo":10,
    "uncertain":"1"
    }
  },
  {
    "type": "Feature",
    "geometry": {
       "type": "Point",
       "coordinates":  [ 139.7405,35.6550 ]
    },
    "properties": {
    "HID":1003012,
    "Type":"認可保育所",
    "Name":"太陽の子三田保育園",
    "Label":"太陽の子三田保育園",
    "Full":70,
    "Add1":"港区",
    "Add2":"三田一丁目２番１８号ＴＴＤＰＬＡＺＡビル２階",
    "TEL":"--",
    "url":"",
    "Vacancy":"",
    "VacancyDate":"",
    "sourceNo":10,
    "uncertain":"1"
    }
  },
  {
    "type": "Feature",
    "geometry": {
       "type": "Point",
       "coordinates":  [ 139.7379,35.6305 ]
    },
    "properties": {
    "HID":1003013,
    "Type":"認可保育所",
    "Name":"高輪夢保育園",
    "Label":"高輪夢保育園",
    "Full":70,
    "Add1":"港区",
    "Add2":"高輪三丁目２５番３３号長田ビル３階",
    "TEL":"--",
    "url":"",
    "Vacancy":"",
    "VacancyDate":"",
    "sourceNo":10,
    "uncertain":"1"
    }
  },
  {
    "type": "Feature",
    "geometry": {
       "type": "Point",
       "coordinates":  [ 139.7298,35.6319 ]
    },
    "properties": {
    "HID":1003014,
    "Type":"認可保育所",
    "Name":"ニチイキッズ白金台保育園",
    "Label":"ニチイキッズ白金台保育園",
    "Full":70,
    "Add1":"港区",
    "Add2":"白金台二丁目２６番１０号グリーンオーク高輪台２階",
    "TEL":"--",
    "url":"",
    "Vacancy":"",
    "VacancyDate":"",
    "sourceNo":10,
    "uncertain":"1"
    }
  },
  {
    "type": "Feature",
    "geometry": {
       "type": "Point",
       "coordinates":  [ 139.7455,35.6304 ]
    },
    "properties": {
    "HID":1003015,
    "Type":"認可保育所",
    "Name":"ゆらりん港南保育園",
    "Label":"ゆらりん港南保育園",
    "Full":60,
    "Add1":"東京都港区",
    "Add2":"港南１−６−２７ＳＳＪ品川ビル２階",
    "TEL":"--",
    "url":"",
    "Vacancy":"",
    "VacancyDate":"",
    "sourceNo":10,
    "uncertain":"1"
    }
  },
  {
    "type": "Feature",
    "geometry": {
       "type": "Point",
       "coordinates":  [ 139.7485,35.6297 ]
    },
    "properties": {
    "HID":1003016,
    "Type":"認可保育所",
    "Name":"こうなん保育園",
    "Label":"こうなん保育園",
    "Full":146,
    "Add1":"東京都港区",
    "Add2":"港南４−２−３−１０１",
    "TEL":"03-3450-3800",
    "url":"",
    "Vacancy":"",
    "VacancyDate":"",
    "sourceNo":8,
    "uncertain":"0"
    }
  },
  {
    "type": "Feature",
    "geometry": {
       "type": "Point",
       "coordinates":  [ 139.7505,35.6279 ]
    },
    "properties": {
    "HID":1003017,
    "Type":"認可保育所",
    "Name":"ベネッセチャイルドケアセンター港南",
    "Label":"ベネッセチャイルドケアセンター港南",
    "Full":60,
    "Add1":"東京都港区",
    "Add2":"港南４−６−７　ワールドシティタワーズキャピタルタワー２階",
    "TEL":"03-5783-5871",
    "url":"",
    "Vacancy":"",
    "VacancyDate":"",
    "sourceNo":8,
    "uncertain":"0"
    }
  },
  {
    "type": "Feature",
    "geometry": {
       "type": "Point",
       "coordinates":  [ 139.7320,35.6367 ]
    },
    "properties": {
    "HID":1003018,
    "Type":"認可保育所",
    "Name":"愛星保育園",
    "Label":"愛星保育園",
    "Full":65,
    "Add1":"東京都港区",
    "Add2":"高輪１−２７−４０",
    "TEL":"03-3441-5410",
    "url":"",
    "Vacancy":"",
    "VacancyDate":"",
    "sourceNo":8,
    "uncertain":"0"
    }
  },
  {
    "type": "Feature",
    "geometry": {
       "type": "Point",
       "coordinates":  [ 139.7353,35.6423 ]
    },
    "properties": {
    "HID":1003019,
    "Type":"認可保育所",
    "Name":"みなと保育園",
    "Label":"みなと保育園",
    "Full":70,
    "Add1":"東京都港区",
    "Add2":"高輪１−６−９",
    "TEL":"03-3443-3406",
    "url":"",
    "Vacancy":"",
    "VacancyDate":"",
    "sourceNo":8,
    "uncertain":"0"
    }
  },
  {
    "type": "Feature",
    "geometry": {
       "type": "Point",
       "coordinates":  [ 139.7358,35.6330 ]
    },
    "properties": {
    "HID":1003020,
    "Type":"認可保育所",
    "Name":"高輪保育園",
    "Label":"高輪保育園",
    "Full":148,
    "Add1":"東京都港区",
    "Add2":"高輪３−１８−１５",
    "TEL":"03-3449-1641",
    "url":"",
    "Vacancy":"",
    "VacancyDate":"",
    "sourceNo":10,
    "uncertain":"1"
    }
  },
  {
    "type": "Feature",
    "geometry": {
       "type": "Point",
       "coordinates":  [ 139.7445,35.6545 ]
    },
    "properties": {
    "HID":1003021,
    "Type":"認可保育所",
    "Name":"あい保育園赤羽橋",
    "Label":"あい保育園赤羽橋",
    "Full":60,
    "Add1":"東京都港区",
    "Add2":"三田１−３−３１ＦＯＲＥＣＡＳＴ三田２階",
    "TEL":"03-6453-9325",
    "url":"",
    "Vacancy":"",
    "VacancyDate":"",
    "sourceNo":10,
    "uncertain":"1"
    }
  },
  {
    "type": "Feature",
    "geometry": {
       "type": "Point",
       "coordinates":  [ 139.7477,35.6487 ]
    },
    "properties": {
    "HID":1003022,
    "Type":"認可保育所",
    "Name":"芝保育園",
    "Label":"芝保育園",
    "Full":164,
    "Add1":"東京都港区",
    "Add2":"芝５−１８−１−１０１",
    "TEL":"03-3455-4669",
    "url":"",
    "Vacancy":"",
    "VacancyDate":"",
    "sourceNo":8,
    "uncertain":"0"
    }
  },
  {
    "type": "Feature",
    "geometry": {
       "type": "Point",
       "coordinates":  [ 139.7545,35.6441 ]
    },
    "properties": {
    "HID":1003023,
    "Type":"認可保育所",
    "Name":"にじのいるか保育園芝浦",
    "Label":"にじのいるか保育園芝浦",
    "Full":60,
    "Add1":"東京都港区",
    "Add2":"芝浦２−３−３１第二高取ビル２階",
    "TEL":"03-6435-3804",
    "url":"",
    "Vacancy":"",
    "VacancyDate":"",
    "sourceNo":10,
    "uncertain":"1"
    }
  },
  {
    "type": "Feature",
    "geometry": {
       "type": "Point",
       "coordinates":  [ 139.7492,35.6397 ]
    },
    "properties": {
    "HID":1003024,
    "Type":"認可保育所",
    "Name":"アスク芝浦４丁目保育園",
    "Label":"アスク芝浦４丁目保育園",
    "Full":60,
    "Add1":"東京都港区",
    "Add2":"芝浦４−１２−２８",
    "TEL":"03-6435-2855",
    "url":"",
    "Vacancy":"",
    "VacancyDate":"",
    "sourceNo":8,
    "uncertain":"0"
    }
  },
  {
    "type": "Feature",
    "geometry": {
       "type": "Point",
       "coordinates":  [ 139.7527,35.6405 ]
    },
    "properties": {
    "HID":1003025,
    "Type":"認可保育所",
    "Name":"芝浦アイランドこども園",
    "Label":"芝浦アイランドこども園",
    "Full":85,
    "Add1":"東京都港区",
    "Add2":"芝浦４−２０−１",
    "TEL":"03-5443-7337",
    "url":"",
    "Vacancy":"",
    "VacancyDate":"",
    "sourceNo":8,
    "uncertain":"0"
    }
  },
  {
    "type": "Feature",
    "geometry": {
       "type": "Point",
       "coordinates":  [ 139.7506,35.6541 ]
    },
    "properties": {
    "HID":1003026,
    "Type":"認可保育所",
    "Name":"芝公園保育園",
    "Label":"芝公園保育園",
    "Full":150,
    "Add1":"東京都港区",
    "Add2":"芝公園２−７−３",
    "TEL":"03-3438-0435",
    "url":"",
    "Vacancy":"",
    "VacancyDate":"",
    "sourceNo":8,
    "uncertain":"0"
    }
  },
  {
    "type": "Feature",
    "geometry": {
       "type": "Point",
       "coordinates":  [ 139.7227,35.6608 ]
    },
    "properties": {
    "HID":1003027,
    "Type":"認可保育所",
    "Name":"西麻布保育園",
    "Label":"西麻布保育園",
    "Full":102,
    "Add1":"東京都港区",
    "Add2":"西麻布２−１３−３",
    "TEL":"03-3409-4924",
    "url":"",
    "Vacancy":"",
    "VacancyDate":"",
    "sourceNo":8,
    "uncertain":"0"
    }
  },
  {
    "type": "Feature",
    "geometry": {
       "type": "Point",
       "coordinates":  [ 139.7343,35.6712 ]
    },
    "properties": {
    "HID":1003028,
    "Type":"認可保育所",
    "Name":"赤坂保育園",
    "Label":"赤坂保育園",
    "Full":105,
    "Add1":"東京都港区",
    "Add2":"赤坂５−５−２６−１０１",
    "TEL":"03-3583-2155",
    "url":"",
    "Vacancy":"",
    "VacancyDate":"",
    "sourceNo":8,
    "uncertain":"0"
    }
  },
  {
    "type": "Feature",
    "geometry": {
       "type": "Point",
       "coordinates":  [ 139.7770,35.6299 ]
    },
    "properties": {
    "HID":1003029,
    "Type":"認可保育所",
    "Name":"台場保育園",
    "Label":"台場保育園",
    "Full":131,
    "Add1":"東京都港区",
    "Add2":"台場１−５−１−シーディアお台場５番街２階台場保育園",
    "TEL":"03-5500-2360",
    "url":"",
    "Vacancy":"",
    "VacancyDate":"",
    "sourceNo":8,
    "uncertain":"0"
    }
  },
  {
    "type": "Feature",
    "geometry": {
       "type": "Point",
       "coordinates":  [ 139.7435,35.6559 ]
    },
    "properties": {
    "HID":1003030,
    "Type":"認可保育所",
    "Name":"飯倉保育園",
    "Label":"飯倉保育園",
    "Full":140,
    "Add1":"東京都港区",
    "Add2":"東麻布１−２１−２",
    "TEL":"03-3583-1786",
    "url":"",
    "Vacancy":"",
    "VacancyDate":"",
    "sourceNo":8,
    "uncertain":"0"
    }
  },
  {
    "type": "Feature",
    "geometry": {
       "type": "Point",
       "coordinates":  [ 139.7258,35.6711 ]
    },
    "properties": {
    "HID":1003031,
    "Type":"認可保育所",
    "Name":"南青山保育園",
    "Label":"南青山保育園",
    "Full":138,
    "Add1":"東京都港区",
    "Add2":"南青山１−３−１５",
    "TEL":"03-3401-1650",
    "url":"",
    "Vacancy":"",
    "VacancyDate":"",
    "sourceNo":8,
    "uncertain":"0"
    }
  },
  {
    "type": "Feature",
    "geometry": {
       "type": "Point",
       "coordinates":  [ 139.7323,35.6511 ]
    },
    "properties": {
    "HID":1003032,
    "Type":"認可保育所",
    "Name":"まなびの森保育園麻布",
    "Label":"まなびの森保育園麻布",
    "Full":60,
    "Add1":"東京都港区",
    "Add2":"南麻布１−３０",
    "TEL":"--",
    "url":"",
    "Vacancy":"",
    "VacancyDate":"",
    "sourceNo":10,
    "uncertain":"1"
    }
  },
  {
    "type": "Feature",
    "geometry": {
       "type": "Point",
       "coordinates":  [ 139.7304,35.6510 ]
    },
    "properties": {
    "HID":1003033,
    "Type":"認可保育所",
    "Name":"本村保育園",
    "Label":"本村保育園",
    "Full":80,
    "Add1":"東京都港区",
    "Add2":"南麻布３−５−１５",
    "TEL":"03-3444-2385",
    "url":"",
    "Vacancy":"",
    "VacancyDate":"",
    "sourceNo":8,
    "uncertain":"0"
    }
  },
  {
    "type": "Feature",
    "geometry": {
       "type": "Point",
       "coordinates":  [ 139.7243,35.6477 ]
    },
    "properties": {
    "HID":1003034,
    "Type":"認可保育所",
    "Name":"南麻布保育園",
    "Label":"南麻布保育園",
    "Full":102,
    "Add1":"東京都港区",
    "Add2":"南麻布４−２−２９−１０１",
    "TEL":"03-3442-8068",
    "url":"",
    "Vacancy":"",
    "VacancyDate":"",
    "sourceNo":8,
    "uncertain":"0"
    }
  },
  {
    "type": "Feature",
    "geometry": {
       "type": "Point",
       "coordinates":  [ 139.7337,35.6457 ]
    },
    "properties": {
    "HID":1003035,
    "Type":"認可保育所",
    "Name":"伊皿子坂保育園",
    "Label":"伊皿子坂保育園",
    "Full":153,
    "Add1":"東京都港区",
    "Add2":"白金１−１１−１６",
    "TEL":"03-3444-7601",
    "url":"",
    "Vacancy":"",
    "VacancyDate":"",
    "sourceNo":8,
    "uncertain":"0"
    }
  },
  {
    "type": "Feature",
    "geometry": {
       "type": "Point",
       "coordinates":  [ 139.7310,35.6449 ]
    },
    "properties": {
    "HID":1003036,
    "Type":"認可保育所",
    "Name":"白金保育園",
    "Label":"白金保育園",
    "Full":101,
    "Add1":"東京都港区",
    "Add2":"白金３−１０−１２",
    "TEL":"03-3441-5076",
    "url":"",
    "Vacancy":"",
    "VacancyDate":"",
    "sourceNo":8,
    "uncertain":"0"
    }
  },
  {
    "type": "Feature",
    "geometry": {
       "type": "Point",
       "coordinates":  [ 139.7276,35.6429 ]
    },
    "properties": {
    "HID":1003037,
    "Type":"認可保育所",
    "Name":"みつばち保育園",
    "Label":"みつばち保育園",
    "Full":30,
    "Add1":"東京都港区",
    "Add2":"白金４−７−２",
    "TEL":"03-3444-8767",
    "url":"",
    "Vacancy":"",
    "VacancyDate":"",
    "sourceNo":8,
    "uncertain":"0"
    }
  },
  {
    "type": "Feature",
    "geometry": {
       "type": "Point",
       "coordinates":  [ 139.7142,35.6679 ]
    },
    "properties": {
    "HID":1003038,
    "Type":"認可保育所",
    "Name":"青山保育園",
    "Label":"青山保育園",
    "Full":93,
    "Add1":"東京都港区",
    "Add2":"北青山３−４−１４−１０１",
    "TEL":"03-3401-1723",
    "url":"",
    "Vacancy":"",
    "VacancyDate":"",
    "sourceNo":8,
    "uncertain":"0"
    }
  },
  {
    "type": "Feature",
    "geometry": {
       "type": "Point",
       "coordinates":  [ 139.7342,35.6596 ]
    },
    "properties": {
    "HID":1003039,
    "Type":"認可保育所",
    "Name":"麻布保育園",
    "Label":"麻布保育園",
    "Full":79,
    "Add1":"東京都港区",
    "Add2":"六本木５−６−２１",
    "TEL":"03-3403-8846",
    "url":"",
    "Vacancy":"",
    "VacancyDate":"",
    "sourceNo":8,
    "uncertain":"0"
    }
  },
  {
    "type": "Feature",
    "geometry": {
       "type": "Point",
       "coordinates":  [ 139.7163,35.7029 ]
    },
    "properties": {
    "HID":1004001,
    "Type":"認可保育所",
    "Name":"新宿いるま保育園",
    "Label":"新宿いるま保育園",
    "Full":137,
    "Add1":"東京都新宿区",
    "Add2":"戸山一丁目２１番１号",
    "TEL":"--",
    "url":"",
    "Vacancy":"",
    "VacancyDate":"",
    "sourceNo":10,
    "uncertain":"1"
    }
  },
  {
    "type": "Feature",
    "geometry": {
       "type": "Point",
       "coordinates":  [ 139.7102,35.7018 ]
    },
    "properties": {
    "HID":1004002,
    "Type":"認可保育所",
    "Name":"茶々ひがしとやま子ども園",
    "Label":"茶々ひがしとやま子ども園",
    "Full":110,
    "Add1":"新宿区",
    "Add2":"戸山二丁目３４番１０１号",
    "TEL":"--",
    "url":"",
    "Vacancy":"",
    "VacancyDate":"",
    "sourceNo":8,
    "uncertain":"0"
    }
  },
  {
    "type": "Feature",
    "geometry": {
       "type": "Point",
       "coordinates":  [ 139.7396,35.6972 ]
    },
    "properties": {
    "HID":1004003,
    "Type":"認可保育所",
    "Name":"ぽけっとランド市ヶ谷保育園",
    "Label":"ぽけっとランド市ヶ谷保育園",
    "Full":122,
    "Add1":"新宿区",
    "Add2":"市谷船河原町１番地",
    "TEL":"--",
    "url":"",
    "Vacancy":"",
    "VacancyDate":"",
    "sourceNo":10,
    "uncertain":"1"
    }
  },
  {
    "type": "Feature",
    "geometry": {
       "type": "Point",
       "coordinates":  [ 139.7293,35.6876 ]
    },
    "properties": {
    "HID":1004004,
    "Type":"認可保育所",
    "Name":"アスク新宿南町保育園",
    "Label":"アスク新宿南町保育園",
    "Full":70,
    "Add1":"新宿区",
    "Add2":"本塩町２番地",
    "TEL":"--",
    "url":"",
    "Vacancy":"",
    "VacancyDate":"",
    "sourceNo":10,
    "uncertain":"1"
    }
  },
  {
    "type": "Feature",
    "geometry": {
       "type": "Point",
       "coordinates":  [ 139.7317,35.6904 ]
    },
    "properties": {
    "HID":1004005,
    "Type":"認可保育所",
    "Name":"ポピンズナーサリースクール四ッ谷",
    "Label":"ポピンズナーサリースクール四ッ谷",
    "Full":61,
    "Add1":"新宿区",
    "Add2":"市谷本村町２番１０号",
    "TEL":"--",
    "url":"",
    "Vacancy":"",
    "VacancyDate":"",
    "sourceNo":10,
    "uncertain":"1"
    }
  },
  {
    "type": "Feature",
    "geometry": {
       "type": "Point",
       "coordinates":  [ 139.7287,35.7045 ]
    },
    "properties": {
    "HID":1004006,
    "Type":"認可保育所",
    "Name":"ほっぺるランド神楽坂",
    "Label":"ほっぺるランド神楽坂",
    "Full":70,
    "Add1":"新宿区",
    "Add2":"榎町４３番地１",
    "TEL":"--",
    "url":"",
    "Vacancy":"",
    "VacancyDate":"",
    "sourceNo":10,
    "uncertain":"1"
    }
  },
  {
    "type": "Feature",
    "geometry": {
       "type": "Point",
       "coordinates":  [ 139.7009,35.7173 ]
    },
    "properties": {
    "HID":1004007,
    "Type":"認可保育所",
    "Name":"新宿せいが保育園",
    "Label":"新宿せいが保育園",
    "Full":115,
    "Add1":"東京都新宿区",
    "Add2":"下落合２−１０−２０",
    "TEL":"03-3954-4190",
    "url":"",
    "Vacancy":"",
    "VacancyDate":"",
    "sourceNo":8,
    "uncertain":"0"
    }
  },
  {
    "type": "Feature",
    "geometry": {
       "type": "Point",
       "coordinates":  [ 139.7183,35.6975 ]
    },
    "properties": {
    "HID":1004008,
    "Type":"認可保育所",
    "Name":"至誠会保育園",
    "Label":"至誠会保育園",
    "Full":180,
    "Add1":"東京都新宿区",
    "Add2":"河田町１０−１３",
    "TEL":"03-3341-4677",
    "url":"",
    "Vacancy":"",
    "VacancyDate":"",
    "sourceNo":8,
    "uncertain":"0"
    }
  },
  {
    "type": "Feature",
    "geometry": {
       "type": "Point",
       "coordinates":  [ 139.7241,35.6986 ]
    },
    "properties": {
    "HID":1004009,
    "Type":"認可保育所",
    "Name":"原町みゆき保育園",
    "Label":"原町みゆき保育園",
    "Full":160,
    "Add1":"東京都新宿区",
    "Add2":"原町２丁目４３番地",
    "TEL":"03-3356-2663",
    "url":"",
    "Vacancy":"",
    "VacancyDate":"",
    "sourceNo":8,
    "uncertain":"0"
    }
  },
  {
    "type": "Feature",
    "geometry": {
       "type": "Point",
       "coordinates":  [ 139.7123,35.7021 ]
    },
    "properties": {
    "HID":1004010,
    "Type":"認可保育所",
    "Name":"戸山第二保育園",
    "Label":"戸山第二保育園",
    "Full":111,
    "Add1":"東京都新宿区",
    "Add2":"戸山２−１８−１０１",
    "TEL":"03-3203-2385",
    "url":"",
    "Vacancy":"",
    "VacancyDate":"",
    "sourceNo":8,
    "uncertain":"0"
    }
  },
  {
    "type": "Feature",
    "geometry": {
       "type": "Point",
       "coordinates":  [ 139.7118,35.7043 ]
    },
    "properties": {
    "HID":1004011,
    "Type":"認可保育所",
    "Name":"戸山第一子ども園",
    "Label":"戸山第一子ども園",
    "Full":100,
    "Add1":"東京都新宿区",
    "Add2":"戸山２−２６−１０１",
    "TEL":"03-3202-7879",
    "url":"",
    "Vacancy":"",
    "VacancyDate":"",
    "sourceNo":8,
    "uncertain":"0"
    }
  },
  {
    "type": "Feature",
    "geometry": {
       "type": "Point",
       "coordinates":  [ 139.7092,35.7110 ]
    },
    "properties": {
    "HID":1004012,
    "Type":"認可保育所",
    "Name":"高田馬場第二保育園",
    "Label":"高田馬場第二保育園",
    "Full":105,
    "Add1":"東京都新宿区",
    "Add2":"高田馬場１−４−１７",
    "TEL":"03-3209-1433",
    "url":"",
    "Vacancy":"",
    "VacancyDate":"",
    "sourceNo":8,
    "uncertain":"0"
    }
  },
  {
    "type": "Feature",
    "geometry": {
       "type": "Point",
       "coordinates":  [ 139.6958,35.7125 ]
    },
    "properties": {
    "HID":1004013,
    "Type":"認可保育所",
    "Name":"オルト保育園",
    "Label":"オルト保育園",
    "Full":122,
    "Add1":"東京都新宿区",
    "Add2":"高田馬場３−４０−３",
    "TEL":"03-5332-7081",
    "url":"",
    "Vacancy":"",
    "VacancyDate":"",
    "sourceNo":8,
    "uncertain":"0"
    }
  },
  {
    "type": "Feature",
    "geometry": {
       "type": "Point",
       "coordinates":  [ 139.6958,35.7093 ]
    },
    "properties": {
    "HID":1004014,
    "Type":"認可保育所",
    "Name":"しんえい子ども園　もくもく",
    "Label":"しんえい子ども園　もくもく",
    "Full":151,
    "Add1":"東京都新宿区",
    "Add2":"高田馬場４−３６−１２",
    "TEL":"--",
    "url":"",
    "Vacancy":"",
    "VacancyDate":"",
    "sourceNo":10,
    "uncertain":"1"
    }
  },
  {
    "type": "Feature",
    "geometry": {
       "type": "Point",
       "coordinates":  [ 139.7247,35.6869 ]
    },
    "properties": {
    "HID":1004015,
    "Type":"認可保育所",
    "Name":"四谷子ども園",
    "Label":"四谷子ども園",
    "Full":112,
    "Add1":"東京都新宿区",
    "Add2":"四谷２−６",
    "TEL":"03-5369-3775",
    "url":"",
    "Vacancy":"",
    "VacancyDate":"",
    "sourceNo":8,
    "uncertain":"0"
    }
  },
  {
    "type": "Feature",
    "geometry": {
       "type": "Point",
       "coordinates":  [ 139.7162,35.6895 ]
    },
    "properties": {
    "HID":1004016,
    "Type":"認可保育所",
    "Name":"大木戸子ども園",
    "Label":"大木戸子ども園",
    "Full":151,
    "Add1":"東京都新宿区",
    "Add2":"四谷４−１７",
    "TEL":"03-3358-1431",
    "url":"",
    "Vacancy":"",
    "VacancyDate":"",
    "sourceNo":8,
    "uncertain":"0"
    }
  },
  {
    "type": "Feature",
    "geometry": {
       "type": "Point",
       "coordinates":  [ 139.7350,35.6939 ]
    },
    "properties": {
    "HID":1004017,
    "Type":"認可保育所",
    "Name":"長延保育園",
    "Label":"長延保育園",
    "Full":71,
    "Add1":"東京都新宿区",
    "Add2":"市谷長延寺町８",
    "TEL":"03-3260-1335",
    "url":"",
    "Vacancy":"",
    "VacancyDate":"",
    "sourceNo":8,
    "uncertain":"0"
    }
  },
  {
    "type": "Feature",
    "geometry": {
       "type": "Point",
       "coordinates":  [ 139.6911,35.7127 ]
    },
    "properties": {
    "HID":1004018,
    "Type":"認可保育所",
    "Name":"八幡神社愛育園",
    "Label":"八幡神社愛育園",
    "Full":76,
    "Add1":"東京都新宿区",
    "Add2":"上落合１−２６−１９",
    "TEL":"03-3368-3939",
    "url":"",
    "Vacancy":"",
    "VacancyDate":"",
    "sourceNo":8,
    "uncertain":"0"
    }
  },
  {
    "type": "Feature",
    "geometry": {
       "type": "Point",
       "coordinates":  [ 139.7205,35.6831 ]
    },
    "properties": {
    "HID":1004019,
    "Type":"認可保育所",
    "Name":"しなのまち子ども園",
    "Label":"しなのまち子ども園",
    "Full":110,
    "Add1":"東京都新宿区",
    "Add2":"信濃町２０",
    "TEL":"03-3357-6853",
    "url":"",
    "Vacancy":"",
    "VacancyDate":"",
    "sourceNo":8,
    "uncertain":"0"
    }
  },
  {
    "type": "Feature",
    "geometry": {
       "type": "Point",
       "coordinates":  [ 139.7109,35.6928 ]
    },
    "properties": {
    "HID":1004020,
    "Type":"認可保育所",
    "Name":"新宿第二保育園",
    "Label":"新宿第二保育園",
    "Full":73,
    "Add1":"東京都新宿区",
    "Add2":"新宿５−３−１３",
    "TEL":"03-3341-8956",
    "url":"",
    "Vacancy":"",
    "VacancyDate":"",
    "sourceNo":8,
    "uncertain":"0"
    }
  },
  {
    "type": "Feature",
    "geometry": {
       "type": "Point",
       "coordinates":  [ 139.6879,35.6862 ]
    },
    "properties": {
    "HID":1004021,
    "Type":"認可保育所",
    "Name":"西新宿保育園西新宿子ども園",
    "Label":"西新宿保育園西新宿子ども園",
    "Full":42,
    "Add1":"東京都新宿区",
    "Add2":"西新宿４−３５−５",
    "TEL":"03-3299-7727",
    "url":"",
    "Vacancy":"",
    "VacancyDate":"",
    "sourceNo":8,
    "uncertain":"0"
    }
  },
  {
    "type": "Feature",
    "geometry": {
       "type": "Point",
       "coordinates":  [ 139.6914,35.6942 ]
    },
    "properties": {
    "HID":1004022,
    "Type":"認可保育所",
    "Name":"新宿成子坂愛育園",
    "Label":"新宿成子坂愛育園",
    "Full":127,
    "Add1":"東京都新宿区",
    "Add2":"西新宿６−７−３９",
    "TEL":"03-3342-6907",
    "url":"",
    "Vacancy":"",
    "VacancyDate":"",
    "sourceNo":8,
    "uncertain":"0"
    }
  },
  {
    "type": "Feature",
    "geometry": {
       "type": "Point",
       "coordinates":  [ 139.7212,35.7104 ]
    },
    "properties": {
    "HID":1004023,
    "Type":"認可保育所",
    "Name":"西早稲田保育園",
    "Label":"西早稲田保育園",
    "Full":79,
    "Add1":"東京都新宿区",
    "Add2":"西早稲田１−９−３０",
    "TEL":"03-3209-5294",
    "url":"",
    "Vacancy":"",
    "VacancyDate":"",
    "sourceNo":8,
    "uncertain":"0"
    }
  },
  {
    "type": "Feature",
    "geometry": {
       "type": "Point",
       "coordinates":  [ 139.6797,35.7198 ]
    },
    "properties": {
    "HID":1004024,
    "Type":"認可保育所",
    "Name":"西落合子ども園",
    "Label":"西落合子ども園",
    "Full":107,
    "Add1":"東京都新宿区",
    "Add2":"西落合１−３１−２４",
    "TEL":"03-3954-1064",
    "url":"",
    "Vacancy":"",
    "VacancyDate":"",
    "sourceNo":8,
    "uncertain":"0"
    }
  },
  {
    "type": "Feature",
    "geometry": {
       "type": "Point",
       "coordinates":  [ 139.7224,35.7053 ]
    },
    "properties": {
    "HID":1004025,
    "Type":"認可保育所",
    "Name":"早稲田南町保育園",
    "Label":"早稲田南町保育園",
    "Full":78,
    "Add1":"東京都新宿区",
    "Add2":"早稲田南町５０",
    "TEL":"03-3203-7848",
    "url":"",
    "Vacancy":"",
    "VacancyDate":"",
    "sourceNo":8,
    "uncertain":"0"
    }
  },
  {
    "type": "Feature",
    "geometry": {
       "type": "Point",
       "coordinates":  [ 139.7024,35.6987 ]
    },
    "properties": {
    "HID":1004026,
    "Type":"認可保育所",
    "Name":"大久保第二保育園",
    "Label":"大久保第二保育園",
    "Full":105,
    "Add1":"東京都新宿区",
    "Add2":"大久保１−１７−２０",
    "TEL":"03-3209-0801",
    "url":"",
    "Vacancy":"",
    "VacancyDate":"",
    "sourceNo":10,
    "uncertain":"1"
    }
  },
  {
    "type": "Feature",
    "geometry": {
       "type": "Point",
       "coordinates":  [ 139.7067,35.7023 ]
    },
    "properties": {
    "HID":1004027,
    "Type":"認可保育所",
    "Name":"エイビイシイ保育園",
    "Label":"エイビイシイ保育園",
    "Full":90,
    "Add1":"東京都新宿区",
    "Add2":"大久保２‐１１‐５",
    "TEL":"03-3232-9633",
    "url":"",
    "Vacancy":"",
    "VacancyDate":"",
    "sourceNo":8,
    "uncertain":"0"
    }
  },
  {
    "type": "Feature",
    "geometry": {
       "type": "Point",
       "coordinates":  [ 139.7061,35.7083 ]
    },
    "properties": {
    "HID":1004028,
    "Type":"認可保育所",
    "Name":"大久保第一保育園",
    "Label":"大久保第一保育園",
    "Full":108,
    "Add1":"東京都新宿区",
    "Add2":"大久保３−１１−１",
    "TEL":"03-3203-0346",
    "url":"",
    "Vacancy":"",
    "VacancyDate":"",
    "sourceNo":8,
    "uncertain":"0"
    }
  },
  {
    "type": "Feature",
    "geometry": {
       "type": "Point",
       "coordinates":  [ 139.6839,35.7146 ]
    },
    "properties": {
    "HID":1004029,
    "Type":"認可保育所",
    "Name":"おちごなかい子ども園",
    "Label":"おちごなかい子ども園",
    "Full":106,
    "Add1":"東京都新宿区",
    "Add2":"中井１−８−１２",
    "TEL":"03-3361-7000",
    "url":"",
    "Vacancy":"",
    "VacancyDate":"",
    "sourceNo":8,
    "uncertain":"0"
    }
  },
  {
    "type": "Feature",
    "geometry": {
       "type": "Point",
       "coordinates":  [ 139.6862,35.7176 ]
    },
    "properties": {
    "HID":1004030,
    "Type":"認可保育所",
    "Name":"獅子孔保育園",
    "Label":"獅子孔保育園",
    "Full":80,
    "Add1":"東京都新宿区",
    "Add2":"中井２−８−６",
    "TEL":"03-3951-0759",
    "url":"",
    "Vacancy":"",
    "VacancyDate":"",
    "sourceNo":8,
    "uncertain":"0"
    }
  },
  {
    "type": "Feature",
    "geometry": {
       "type": "Point",
       "coordinates":  [ 139.6939,35.7180 ]
    },
    "properties": {
    "HID":1004031,
    "Type":"認可保育所",
    "Name":"中落合第二保育園",
    "Label":"中落合第二保育園",
    "Full":116,
    "Add1":"東京都新宿区",
    "Add2":"中落合２−７−２４",
    "TEL":"03-3952-7165",
    "url":"",
    "Vacancy":"",
    "VacancyDate":"",
    "sourceNo":8,
    "uncertain":"0"
    }
  },
  {
    "type": "Feature",
    "geometry": {
       "type": "Point",
       "coordinates":  [ 139.6822,35.7190 ]
    },
    "properties": {
    "HID":1004032,
    "Type":"認可保育所",
    "Name":"新宿こだま保育園",
    "Label":"新宿こだま保育園",
    "Full":105,
    "Add1":"東京都新宿区",
    "Add2":"中落合４−２５−１９",
    "TEL":"03-5988-7807",
    "url":"",
    "Vacancy":"",
    "VacancyDate":"",
    "sourceNo":8,
    "uncertain":"0"
    }
  },
  {
    "type": "Feature",
    "geometry": {
       "type": "Point",
       "coordinates":  [ 139.7403,35.7066 ]
    },
    "properties": {
    "HID":1004033,
    "Type":"認可保育所",
    "Name":"東五軒町保育園",
    "Label":"東五軒町保育園",
    "Full":174,
    "Add1":"東京都新宿区",
    "Add2":"東五軒町５−２４",
    "TEL":"03-3269-6820",
    "url":"",
    "Vacancy":"",
    "VacancyDate":"",
    "sourceNo":8,
    "uncertain":"0"
    }
  },
  {
    "type": "Feature",
    "geometry": {
       "type": "Point",
       "coordinates":  [ 139.7229,35.6820 ]
    },
    "properties": {
    "HID":1004034,
    "Type":"認可保育所",
    "Name":"二葉南元保育園",
    "Label":"二葉南元保育園",
    "Full":61,
    "Add1":"東京都新宿区",
    "Add2":"南元町４",
    "TEL":"03-3351-3819",
    "url":"",
    "Vacancy":"",
    "VacancyDate":"",
    "sourceNo":8,
    "uncertain":"0"
    }
  },
  {
    "type": "Feature",
    "geometry": {
       "type": "Point",
       "coordinates":  [ 139.6982,35.7034 ]
    },
    "properties": {
    "HID":1004035,
    "Type":"認可保育所",
    "Name":"百人町保育園",
    "Label":"百人町保育園",
    "Full":85,
    "Add1":"東京都新宿区",
    "Add2":"百人町２−１８−２１",
    "TEL":"03-3367-4991",
    "url":"",
    "Vacancy":"",
    "VacancyDate":"",
    "sourceNo":8,
    "uncertain":"0"
    }
  },
  {
    "type": "Feature",
    "geometry": {
       "type": "Point",
       "coordinates":  [ 139.7157,35.6941 ]
    },
    "properties": {
    "HID":1004036,
    "Type":"認可保育所",
    "Name":"社会福祉法人新栄会新宿区立富久町保育園",
    "Label":"社会福祉法人新栄会新宿区立富久町保育園",
    "Full":149,
    "Add1":"東京都新宿区",
    "Add2":"富久町２２−１２",
    "TEL":"03-3357-7720",
    "url":"",
    "Vacancy":"",
    "VacancyDate":"",
    "sourceNo":8,
    "uncertain":"0"
    }
  },
  {
    "type": "Feature",
    "geometry": {
       "type": "Point",
       "coordinates":  [ 139.7270,35.7039 ]
    },
    "properties": {
    "HID":1004037,
    "Type":"認可保育所",
    "Name":"弁天町保育園",
    "Label":"弁天町保育園",
    "Full":130,
    "Add1":"東京都新宿区",
    "Add2":"弁天町５０",
    "TEL":"03-3268-1337",
    "url":"",
    "Vacancy":"",
    "VacancyDate":"",
    "sourceNo":8,
    "uncertain":"0"
    }
  },
  {
    "type": "Feature",
    "geometry": {
       "type": "Point",
       "coordinates":  [ 139.6902,35.6984 ]
    },
    "properties": {
    "HID":1004038,
    "Type":"認可保育所",
    "Name":"柏木子ども園",
    "Label":"柏木子ども園",
    "Full":105,
    "Add1":"東京都新宿区",
    "Add2":"北新宿２−３−７",
    "TEL":"03-3369-5855",
    "url":"",
    "Vacancy":"",
    "VacancyDate":"",
    "sourceNo":8,
    "uncertain":"0"
    }
  },
  {
    "type": "Feature",
    "geometry": {
       "type": "Point",
       "coordinates":  [ 139.6916,35.7045 ]
    },
    "properties": {
    "HID":1004039,
    "Type":"認可保育所",
    "Name":"よろい保育園",
    "Label":"よろい保育園",
    "Full":60,
    "Add1":"東京都新宿区",
    "Add2":"北新宿３−１６−１８",
    "TEL":"03-3369-3678",
    "url":"",
    "Vacancy":"",
    "VacancyDate":"",
    "sourceNo":8,
    "uncertain":"0"
    }
  },
  {
    "type": "Feature",
    "geometry": {
       "type": "Point",
       "coordinates":  [ 139.6893,35.7031 ]
    },
    "properties": {
    "HID":1004040,
    "Type":"認可保育所",
    "Name":"北新宿子ども園",
    "Label":"北新宿子ども園",
    "Full":101,
    "Add1":"東京都新宿区",
    "Add2":"北新宿３−２０−２",
    "TEL":"03-3365-0225",
    "url":"",
    "Vacancy":"",
    "VacancyDate":"",
    "sourceNo":8,
    "uncertain":"0"
    }
  },
  {
    "type": "Feature",
    "geometry": {
       "type": "Point",
       "coordinates":  [ 139.6921,35.7073 ]
    },
    "properties": {
    "HID":1004041,
    "Type":"認可保育所",
    "Name":"東京母子愛育会保育園",
    "Label":"東京母子愛育会保育園",
    "Full":100,
    "Add1":"東京都新宿区",
    "Add2":"北新宿４−２１−１４",
    "TEL":"03-3369-6005",
    "url":"",
    "Vacancy":"",
    "VacancyDate":"",
    "sourceNo":8,
    "uncertain":"0"
    }
  },
  {
    "type": "Feature",
    "geometry": {
       "type": "Point",
       "coordinates":  [ 139.7346,35.6994 ]
    },
    "properties": {
    "HID":1004042,
    "Type":"認可保育所",
    "Name":"あいじつ子ども園",
    "Label":"あいじつ子ども園",
    "Full":63,
    "Add1":"東京都新宿区",
    "Add2":"北町１７",
    "TEL":"03-3266-0189",
    "url":"",
    "Vacancy":"",
    "VacancyDate":"",
    "sourceNo":10,
    "uncertain":"1"
    }
  },
  {
    "type": "Feature",
    "geometry": {
       "type": "Point",
       "coordinates":  [ 139.7293,35.6876 ]
    },
    "properties": {
    "HID":1004043,
    "Type":"認可保育所",
    "Name":"新宿三つの木保育園もりさんかくしかく",
    "Label":"新宿三つの木保育園もりさんかくしかく",
    "Full":80,
    "Add1":"東京都新宿区",
    "Add2":"本塩町２",
    "TEL":"03-6457-4455",
    "url":"",
    "Vacancy":"",
    "VacancyDate":"",
    "sourceNo":10,
    "uncertain":"1"
    }
  },
  {
    "type": "Feature",
    "geometry": {
       "type": "Point",
       "coordinates":  [ 139.7455,35.7073 ]
    },
    "properties": {
    "HID":1005001,
    "Type":"認可保育所",
    "Name":"グローバルキッズ後楽二丁目園",
    "Label":"グローバルキッズ後楽二丁目園",
    "Full":36,
    "Add1":"東京都文京区",
    "Add2":"後楽二丁目２０番１５号",
    "TEL":"--",
    "url":"",
    "Vacancy":"",
    "VacancyDate":"",
    "sourceNo":10,
    "uncertain":"1"
    }
  },
  {
    "type": "Feature",
    "geometry": {
       "type": "Point",
       "coordinates":  [ 139.7491,35.7260 ]
    },
    "properties": {
    "HID":1005002,
    "Type":"認可保育所",
    "Name":"アスク本駒込保育園",
    "Label":"アスク本駒込保育園",
    "Full":41,
    "Add1":"東京都文京区",
    "Add2":"本駒込二丁目１番２３号",
    "TEL":"--",
    "url":"",
    "Vacancy":"",
    "VacancyDate":"",
    "sourceNo":10,
    "uncertain":"1"
    }
  },
  {
    "type": "Feature",
    "geometry": {
       "type": "Point",
       "coordinates":  [ 139.7467,35.7261 ]
    },
    "properties": {
    "HID":1005003,
    "Type":"認可保育所",
    "Name":"ベネッセかごまち保育園",
    "Label":"ベネッセかごまち保育園",
    "Full":60,
    "Add1":"文京区",
    "Add2":"白山五丁目１７番１７号",
    "TEL":"--",
    "url":"",
    "Vacancy":"",
    "VacancyDate":"",
    "sourceNo":10,
    "uncertain":"1"
    }
  },
  {
    "type": "Feature",
    "geometry": {
       "type": "Point",
       "coordinates":  [ 139.7425,35.7294 ]
    },
    "properties": {
    "HID":1005004,
    "Type":"認可保育所",
    "Name":"ベネッセ千石保育園",
    "Label":"ベネッセ千石保育園",
    "Full":70,
    "Add1":"文京区",
    "Add2":"千石四丁目４５番２号",
    "TEL":"--",
    "url":"",
    "Vacancy":"",
    "VacancyDate":"",
    "sourceNo":10,
    "uncertain":"1"
    }
  },
  {
    "type": "Feature",
    "geometry": {
       "type": "Point",
       "coordinates":  [ 139.7528,35.7131 ]
    },
    "properties": {
    "HID":1005005,
    "Type":"認可保育所",
    "Name":"キッズガーデン文京春日",
    "Label":"キッズガーデン文京春日",
    "Full":49,
    "Add1":"文京区",
    "Add2":"西片一丁目１７番８号　KS第二ビル２階",
    "TEL":"--",
    "url":"",
    "Vacancy":"",
    "VacancyDate":"",
    "sourceNo":10,
    "uncertain":"1"
    }
  },
  {
    "type": "Feature",
    "geometry": {
       "type": "Point",
       "coordinates":  [ 139.7309,35.7232 ]
    },
    "properties": {
    "HID":1005006,
    "Type":"認可保育所",
    "Name":"グローバルキッズ新大塚園",
    "Label":"グローバルキッズ新大塚園",
    "Full":40,
    "Add1":"文京区",
    "Add2":"大塚五丁目３番１３号",
    "TEL":"--",
    "url":"",
    "Vacancy":"",
    "VacancyDate":"",
    "sourceNo":10,
    "uncertain":"1"
    }
  },
  {
    "type": "Feature",
    "geometry": {
       "type": "Point",
       "coordinates":  [ 139.7285,35.7157 ]
    },
    "properties": {
    "HID":1005007,
    "Type":"認可保育所",
    "Name":"八千代保育園",
    "Label":"八千代保育園",
    "Full":45,
    "Add1":"東京都文京区",
    "Add2":"音羽１‐１９‐１８",
    "TEL":"03-5981-3025",
    "url":"",
    "Vacancy":"",
    "VacancyDate":"",
    "sourceNo":8,
    "uncertain":"0"
    }
  },
  {
    "type": "Feature",
    "geometry": {
       "type": "Point",
       "coordinates":  [ 139.7301,35.7097 ]
    },
    "properties": {
    "HID":1005008,
    "Type":"認可保育所",
    "Name":"日本興亜スマイルキッズ江戸川橋保育園",
    "Label":"日本興亜スマイルキッズ江戸川橋保育園",
    "Full":60,
    "Add1":"東京都文京区",
    "Add2":"関口１−４５−１５",
    "TEL":"--",
    "url":"",
    "Vacancy":"",
    "VacancyDate":"",
    "sourceNo":10,
    "uncertain":"1"
    }
  },
  {
    "type": "Feature",
    "geometry": {
       "type": "Point",
       "coordinates":  [ 139.7292,35.7134 ]
    },
    "properties": {
    "HID":1005009,
    "Type":"認可保育所",
    "Name":"青柳保育園",
    "Label":"青柳保育園",
    "Full":85,
    "Add1":"東京都文京区",
    "Add2":"関口３−２−５",
    "TEL":"03-3941-4518",
    "url":"",
    "Vacancy":"",
    "VacancyDate":"",
    "sourceNo":8,
    "uncertain":"0"
    }
  },
  {
    "type": "Feature",
    "geometry": {
       "type": "Point",
       "coordinates":  [ 139.7566,35.7175 ]
    },
    "properties": {
    "HID":1005010,
    "Type":"認可保育所",
    "Name":"向丘保育園",
    "Label":"向丘保育園",
    "Full":133,
    "Add1":"東京都文京区",
    "Add2":"向丘１−３−１１",
    "TEL":"03-3814-6755",
    "url":"",
    "Vacancy":"",
    "VacancyDate":"",
    "sourceNo":8,
    "uncertain":"0"
    }
  },
  {
    "type": "Feature",
    "geometry": {
       "type": "Point",
       "coordinates":  [ 139.7637,35.7184 ]
    },
    "properties": {
    "HID":1005011,
    "Type":"認可保育所",
    "Name":"根津保育園",
    "Label":"根津保育園",
    "Full":21,
    "Add1":"東京都文京区",
    "Add2":"根津１−１５−１２",
    "TEL":"03-3827-2161",
    "url":"",
    "Vacancy":"",
    "VacancyDate":"",
    "sourceNo":8,
    "uncertain":"0"
    }
  },
  {
    "type": "Feature",
    "geometry": {
       "type": "Point",
       "coordinates":  [ 139.7633,35.7212 ]
    },
    "properties": {
    "HID":1005012,
    "Type":"認可保育所",
    "Name":"藍染保育園",
    "Label":"藍染保育園",
    "Full":87,
    "Add1":"東京都文京区",
    "Add2":"根津２−３４−１５",
    "TEL":"03-3828-5509",
    "url":"",
    "Vacancy":"",
    "VacancyDate":"",
    "sourceNo":8,
    "uncertain":"0"
    }
  },
  {
    "type": "Feature",
    "geometry": {
       "type": "Point",
       "coordinates":  [ 139.7504,35.7137 ]
    },
    "properties": {
    "HID":1005013,
    "Type":"認可保育所",
    "Name":"柳町保育園",
    "Label":"柳町保育園",
    "Full":36,
    "Add1":"東京都文京区",
    "Add2":"小石川１−２３−６",
    "TEL":"03-3811-0978",
    "url":"",
    "Vacancy":"",
    "VacancyDate":"",
    "sourceNo":8,
    "uncertain":"0"
    }
  },
  {
    "type": "Feature",
    "geometry": {
       "type": "Point",
       "coordinates":  [ 139.7515,35.7091 ]
    },
    "properties": {
    "HID":1005014,
    "Type":"認可保育所",
    "Name":"小学館アカデミー小石川保育園",
    "Label":"小学館アカデミー小石川保育園",
    "Full":69,
    "Add1":"東京都文京区",
    "Add2":"小石川２−１−１２小石川トーセイビル２階",
    "TEL":"03-5805-1015",
    "url":"",
    "Vacancy":"",
    "VacancyDate":"",
    "sourceNo":8,
    "uncertain":"0"
    }
  },
  {
    "type": "Feature",
    "geometry": {
       "type": "Point",
       "coordinates":  [ 139.7415,35.7186 ]
    },
    "properties": {
    "HID":1005015,
    "Type":"認可保育所",
    "Name":"久堅保育園",
    "Label":"久堅保育園",
    "Full":123,
    "Add1":"東京都文京区",
    "Add2":"小石川５−２７−７",
    "TEL":"03-3811-0712",
    "url":"",
    "Vacancy":"",
    "VacancyDate":"",
    "sourceNo":8,
    "uncertain":"0"
    }
  },
  {
    "type": "Feature",
    "geometry": {
       "type": "Point",
       "coordinates":  [ 139.7361,35.7140 ]
    },
    "properties": {
    "HID":1005016,
    "Type":"認可保育所",
    "Name":"こひなた保育園",
    "Label":"こひなた保育園",
    "Full":97,
    "Add1":"東京都文京区",
    "Add2":"小日向１−２１−１",
    "TEL":"03-3943-4457",
    "url":"",
    "Vacancy":"",
    "VacancyDate":"",
    "sourceNo":8,
    "uncertain":"0"
    }
  },
  {
    "type": "Feature",
    "geometry": {
       "type": "Point",
       "coordinates":  [ 139.7422,35.7095 ]
    },
    "properties": {
    "HID":1005017,
    "Type":"認可保育所",
    "Name":"水道保育園",
    "Label":"水道保育園",
    "Full":122,
    "Add1":"東京都文京区",
    "Add2":"水道１−３−２６",
    "TEL":"03-3812-2237",
    "url":"",
    "Vacancy":"",
    "VacancyDate":"",
    "sourceNo":8,
    "uncertain":"0"
    }
  },
  {
    "type": "Feature",
    "geometry": {
       "type": "Point",
       "coordinates":  [ 139.7570,35.7142 ]
    },
    "properties": {
    "HID":1005018,
    "Type":"認可保育所",
    "Name":"こころの保育園文京西片",
    "Label":"こころの保育園文京西片",
    "Full":91,
    "Add1":"東京都文京区",
    "Add2":"西片２−１−１",
    "TEL":"03-5805-3911",
    "url":"",
    "Vacancy":"",
    "VacancyDate":"",
    "sourceNo":8,
    "uncertain":"0"
    }
  },
  {
    "type": "Feature",
    "geometry": {
       "type": "Point",
       "coordinates":  [ 139.7432,35.7247 ]
    },
    "properties": {
    "HID":1005019,
    "Type":"認可保育所",
    "Name":"千石保育園",
    "Label":"千石保育園",
    "Full":146,
    "Add1":"東京都文京区",
    "Add2":"千石１−４−３",
    "TEL":"03-3947-9220",
    "url":"",
    "Vacancy":"",
    "VacancyDate":"",
    "sourceNo":10,
    "uncertain":"1"
    }
  },
  {
    "type": "Feature",
    "geometry": {
       "type": "Point",
       "coordinates":  [ 139.7382,35.7249 ]
    },
    "properties": {
    "HID":1005020,
    "Type":"認可保育所",
    "Name":"千石西保育園",
    "Label":"千石西保育園",
    "Full":117,
    "Add1":"東京都文京区",
    "Add2":"千石３−１５−１５",
    "TEL":"03-3944-4688",
    "url":"",
    "Vacancy":"",
    "VacancyDate":"",
    "sourceNo":8,
    "uncertain":"0"
    }
  },
  {
    "type": "Feature",
    "geometry": {
       "type": "Point",
       "coordinates":  [ 139.7619,35.7250 ]
    },
    "properties": {
    "HID":1005021,
    "Type":"認可保育所",
    "Name":"しおみ保育園",
    "Label":"しおみ保育園",
    "Full":107,
    "Add1":"東京都文京区",
    "Add2":"千駄木２−２７−８",
    "TEL":"03-3827-8229",
    "url":"",
    "Vacancy":"",
    "VacancyDate":"",
    "sourceNo":8,
    "uncertain":"0"
    }
  },
  {
    "type": "Feature",
    "geometry": {
       "type": "Point",
       "coordinates":  [ 139.7623,35.7216 ]
    },
    "properties": {
    "HID":1005022,
    "Type":"認可保育所",
    "Name":"どんぐり保育園",
    "Label":"どんぐり保育園",
    "Full":30,
    "Add1":"東京都文京区",
    "Add2":"千駄木２−４８−４",
    "TEL":"03-3828-8708",
    "url":"",
    "Vacancy":"",
    "VacancyDate":"",
    "sourceNo":8,
    "uncertain":"0"
    }
  },
  {
    "type": "Feature",
    "geometry": {
       "type": "Point",
       "coordinates":  [ 139.7606,35.7296 ]
    },
    "properties": {
    "HID":1005023,
    "Type":"認可保育所",
    "Name":"駒込保育園",
    "Label":"駒込保育園",
    "Full":93,
    "Add1":"東京都文京区",
    "Add2":"千駄木３−１９−１７",
    "TEL":"03-3821-8800",
    "url":"",
    "Vacancy":"",
    "VacancyDate":"",
    "sourceNo":8,
    "uncertain":"0"
    }
  },
  {
    "type": "Feature",
    "geometry": {
       "type": "Point",
       "coordinates":  [ 139.7357,35.7179 ]
    },
    "properties": {
    "HID":1005024,
    "Type":"認可保育所",
    "Name":"小学館アカデミー茗荷谷保育園",
    "Label":"小学館アカデミー茗荷谷保育園",
    "Full":60,
    "Add1":"東京都文京区",
    "Add2":"大塚１−４−１５アトラスタワー茗荷谷２階",
    "TEL":"--",
    "url":"",
    "Vacancy":"",
    "VacancyDate":"",
    "sourceNo":10,
    "uncertain":"1"
    }
  },
  {
    "type": "Feature",
    "geometry": {
       "type": "Point",
       "coordinates":  [ 139.7346,35.7217 ]
    },
    "properties": {
    "HID":1005025,
    "Type":"認可保育所",
    "Name":"まなびの森保育園",
    "Label":"まなびの森保育園",
    "Full":60,
    "Add1":"東京都文京区",
    "Add2":"大塚３−２０−５アネックス茗荷谷２階",
    "TEL":"03-3946-6670",
    "url":"",
    "Vacancy":"",
    "VacancyDate":"",
    "sourceNo":8,
    "uncertain":"0"
    }
  },
  {
    "type": "Feature",
    "geometry": {
       "type": "Point",
       "coordinates":  [ 139.7259,35.7246 ]
    },
    "properties": {
    "HID":1005026,
    "Type":"認可保育所",
    "Name":"大塚保育園",
    "Label":"大塚保育園",
    "Full":103,
    "Add1":"東京都文京区",
    "Add2":"大塚６−２２−１９",
    "TEL":"03-3943-1631",
    "url":"",
    "Vacancy":"",
    "VacancyDate":"",
    "sourceNo":8,
    "uncertain":"0"
    }
  },
  {
    "type": "Feature",
    "geometry": {
       "type": "Point",
       "coordinates":  [ 139.7511,35.7178 ]
    },
    "properties": {
    "HID":1005027,
    "Type":"認可保育所",
    "Name":"白山ひかり保育園",
    "Label":"白山ひかり保育園",
    "Full":60,
    "Add1":"東京都文京区",
    "Add2":"白山２−２９−９",
    "TEL":"--",
    "url":"",
    "Vacancy":"",
    "VacancyDate":"",
    "sourceNo":10,
    "uncertain":"1"
    }
  },
  {
    "type": "Feature",
    "geometry": {
       "type": "Point",
       "coordinates":  [ 139.7498,35.7181 ]
    },
    "properties": {
    "HID":1005028,
    "Type":"認可保育所",
    "Name":"さしがや保育園",
    "Label":"さしがや保育園",
    "Full":128,
    "Add1":"東京都文京区",
    "Add2":"白山２−３２−６",
    "TEL":"03-3811-3474",
    "url":"",
    "Vacancy":"",
    "VacancyDate":"",
    "sourceNo":8,
    "uncertain":"0"
    }
  },
  {
    "type": "Feature",
    "geometry": {
       "type": "Point",
       "coordinates":  [ 139.7478,35.7225 ]
    },
    "properties": {
    "HID":1005029,
    "Type":"認可保育所",
    "Name":"キッズソフィア・白山",
    "Label":"キッズソフィア・白山",
    "Full":45,
    "Add1":"東京都文京区",
    "Add2":"白山４−３６−１３",
    "TEL":"03-3942-6460",
    "url":"",
    "Vacancy":"",
    "VacancyDate":"",
    "sourceNo":8,
    "uncertain":"0"
    }
  },
  {
    "type": "Feature",
    "geometry": {
       "type": "Point",
       "coordinates":  [ 139.7567,35.7065 ]
    },
    "properties": {
    "HID":1005030,
    "Type":"認可保育所",
    "Name":"本郷保育園",
    "Label":"本郷保育園",
    "Full":93,
    "Add1":"東京都文京区",
    "Add2":"本郷１−２８−１２",
    "TEL":"03-3812-2394",
    "url":"",
    "Vacancy":"",
    "VacancyDate":"",
    "sourceNo":8,
    "uncertain":"0"
    }
  },
  {
    "type": "Feature",
    "geometry": {
       "type": "Point",
       "coordinates":  [ 139.7568,35.7131 ]
    },
    "properties": {
    "HID":1005031,
    "Type":"認可保育所",
    "Name":"慈愛会保育園",
    "Label":"慈愛会保育園",
    "Full":30,
    "Add1":"東京都文京区",
    "Add2":"本郷６−１２−５",
    "TEL":"03-3816-3715",
    "url":"",
    "Vacancy":"",
    "VacancyDate":"",
    "sourceNo":8,
    "uncertain":"0"
    }
  },
  {
    "type": "Feature",
    "geometry": {
       "type": "Point",
       "coordinates":  [ 139.7655,35.7118 ]
    },
    "properties": {
    "HID":1005032,
    "Type":"認可保育所",
    "Name":"たんぽぽ保育園",
    "Label":"たんぽぽ保育園",
    "Full":171,
    "Add1":"東京都文京区",
    "Add2":"本郷７−３−１",
    "TEL":"03-3812-4091",
    "url":"",
    "Vacancy":"",
    "VacancyDate":"",
    "sourceNo":8,
    "uncertain":"0"
    }
  },
  {
    "type": "Feature",
    "geometry": {
       "type": "Point",
       "coordinates":  [ 139.7475,35.7276 ]
    },
    "properties": {
    "HID":1005033,
    "Type":"認可保育所",
    "Name":"本駒込西保育園",
    "Label":"本駒込西保育園",
    "Full":53,
    "Add1":"東京都文京区",
    "Add2":"本駒込２−９−１６",
    "TEL":"03-3947-2906",
    "url":"",
    "Vacancy":"",
    "VacancyDate":"",
    "sourceNo":8,
    "uncertain":"0"
    }
  },
  {
    "type": "Feature",
    "geometry": {
       "type": "Point",
       "coordinates":  [ 139.7551,35.7274 ]
    },
    "properties": {
    "HID":1005034,
    "Type":"認可保育所",
    "Name":"本駒込南保育園",
    "Label":"本駒込南保育園",
    "Full":121,
    "Add1":"東京都文京区",
    "Add2":"本駒込３−１１−１４",
    "TEL":"03-3823-3247",
    "url":"",
    "Vacancy":"",
    "VacancyDate":"",
    "sourceNo":8,
    "uncertain":"0"
    }
  },
  {
    "type": "Feature",
    "geometry": {
       "type": "Point",
       "coordinates":  [ 139.7523,35.7338 ]
    },
    "properties": {
    "HID":1005035,
    "Type":"認可保育所",
    "Name":"本駒込保育園",
    "Label":"本駒込保育園",
    "Full":99,
    "Add1":"東京都文京区",
    "Add2":"本駒込５−６３−２",
    "TEL":"03-3822-3659",
    "url":"",
    "Vacancy":"",
    "VacancyDate":"",
    "sourceNo":8,
    "uncertain":"0"
    }
  },
  {
    "type": "Feature",
    "geometry": {
       "type": "Point",
       "coordinates":  [ 139.7205,35.7139 ]
    },
    "properties": {
    "HID":1005036,
    "Type":"認可保育所",
    "Name":"目白台保育園",
    "Label":"目白台保育園",
    "Full":86,
    "Add1":"東京都文京区",
    "Add2":"目白台１−５−１",
    "TEL":"03-3945-4220",
    "url":"",
    "Vacancy":"",
    "VacancyDate":"",
    "sourceNo":8,
    "uncertain":"0"
    }
  },
  {
    "type": "Feature",
    "geometry": {
       "type": "Point",
       "coordinates":  [ 139.7881,35.7036 ]
    },
    "properties": {
    "HID":1006001,
    "Type":"認可保育所",
    "Name":"アスクくらまえ保育園",
    "Label":"アスクくらまえ保育園",
    "Full":60,
    "Add1":"東京都台東区",
    "Add2":"蔵前４丁目１６−１０",
    "TEL":"03-5822-5205",
    "url":"",
    "Vacancy":"",
    "VacancyDate":"",
    "sourceNo":10,
    "uncertain":"1"
    }
  },
  {
    "type": "Feature",
    "geometry": {
       "type": "Point",
       "coordinates":  [ 139.7872,35.7250 ]
    },
    "properties": {
    "HID":1006002,
    "Type":"認可保育所",
    "Name":"坂本保育園",
    "Label":"坂本保育園",
    "Full":124,
    "Add1":"東京都台東区",
    "Add2":"下谷３−１１−２",
    "TEL":"03-3873-4287",
    "url":"",
    "Vacancy":"",
    "VacancyDate":"",
    "sourceNo":8,
    "uncertain":"0"
    }
  },
  {
    "type": "Feature",
    "geometry": {
       "type": "Point",
       "coordinates":  [ 139.8003,35.7147 ]
    },
    "properties": {
    "HID":1006003,
    "Type":"認可保育所",
    "Name":"花川戸保育園",
    "Label":"花川戸保育園",
    "Full":70,
    "Add1":"東京都台東区",
    "Add2":"花川戸２−１１−１３",
    "TEL":"03-3844-8366",
    "url":"",
    "Vacancy":"",
    "VacancyDate":"",
    "sourceNo":8,
    "uncertain":"0"
    }
  },
  {
    "type": "Feature",
    "geometry": {
       "type": "Point",
       "coordinates":  [ 139.8054,35.7239 ]
    },
    "properties": {
    "HID":1006004,
    "Type":"認可保育所",
    "Name":"共生保育園",
    "Label":"共生保育園",
    "Full":95,
    "Add1":"東京都台東区",
    "Add2":"橋場１−１０−１１",
    "TEL":"03-3873-1369",
    "url":"",
    "Vacancy":"",
    "VacancyDate":"",
    "sourceNo":8,
    "uncertain":"0"
    }
  },
  {
    "type": "Feature",
    "geometry": {
       "type": "Point",
       "coordinates":  [ 139.8071,35.7255 ]
    },
    "properties": {
    "HID":1006005,
    "Type":"認可保育所",
    "Name":"橋場保育園",
    "Label":"橋場保育園",
    "Full":28,
    "Add1":"東京都台東区",
    "Add2":"橋場１−３５−６",
    "TEL":"03-3873-6887",
    "url":"",
    "Vacancy":"",
    "VacancyDate":"",
    "sourceNo":8,
    "uncertain":"0"
    }
  },
  {
    "type": "Feature",
    "geometry": {
       "type": "Point",
       "coordinates":  [ 139.8075,35.7219 ]
    },
    "properties": {
    "HID":1006006,
    "Type":"認可保育所",
    "Name":"待乳保育園",
    "Label":"待乳保育園",
    "Full":106,
    "Add1":"東京都台東区",
    "Add2":"今戸２−２６−１２",
    "TEL":"03-3873-4150",
    "url":"",
    "Vacancy":"",
    "VacancyDate":"",
    "sourceNo":8,
    "uncertain":"0"
    }
  },
  {
    "type": "Feature",
    "geometry": {
       "type": "Point",
       "coordinates":  [ 139.7881,35.7276 ]
    },
    "properties": {
    "HID":1006007,
    "Type":"認可保育所",
    "Name":"愛隣団愛隣保育園",
    "Label":"愛隣団愛隣保育園",
    "Full":130,
    "Add1":"東京都台東区",
    "Add2":"根岸５−１５−３",
    "TEL":"03-3872-4547",
    "url":"",
    "Vacancy":"",
    "VacancyDate":"",
    "sourceNo":8,
    "uncertain":"0"
    }
  },
  {
    "type": "Feature",
    "geometry": {
       "type": "Point",
       "coordinates":  [ 139.7868,35.7061 ]
    },
    "properties": {
    "HID":1006008,
    "Type":"認可保育所",
    "Name":"三筋保育園",
    "Label":"三筋保育園",
    "Full":73,
    "Add1":"東京都台東区",
    "Add2":"三筋２−１６−４",
    "TEL":"03-3866-2413",
    "url":"",
    "Vacancy":"",
    "VacancyDate":"",
    "sourceNo":8,
    "uncertain":"0"
    }
  },
  {
    "type": "Feature",
    "geometry": {
       "type": "Point",
       "coordinates":  [ 139.7889,35.7067 ]
    },
    "properties": {
    "HID":1006009,
    "Type":"認可保育所",
    "Name":"ことぶきこども園",
    "Label":"ことぶきこども園",
    "Full":133,
    "Add1":"東京都台東区",
    "Add2":"寿１−１０−９",
    "TEL":"03-3841-4719",
    "url":"",
    "Vacancy":"",
    "VacancyDate":"",
    "sourceNo":8,
    "uncertain":"0"
    }
  },
  {
    "type": "Feature",
    "geometry": {
       "type": "Point",
       "coordinates":  [ 139.7863,35.7186 ]
    },
    "properties": {
    "HID":1006010,
    "Type":"認可保育所",
    "Name":"松が谷保育園",
    "Label":"松が谷保育園",
    "Full":74,
    "Add1":"東京都台東区",
    "Add2":"松が谷４−１５−１１",
    "TEL":"03-3841-6772",
    "url":"",
    "Vacancy":"",
    "VacancyDate":"",
    "sourceNo":8,
    "uncertain":"0"
    }
  },
  {
    "type": "Feature",
    "geometry": {
       "type": "Point",
       "coordinates":  [ 139.7714,35.7226 ]
    },
    "properties": {
    "HID":1006011,
    "Type":"認可保育所",
    "Name":"谷中保育園",
    "Label":"谷中保育園",
    "Full":103,
    "Add1":"東京都台東区",
    "Add2":"上野桜木２−１６−１０",
    "TEL":"03-3828-3223",
    "url":"",
    "Vacancy":"",
    "VacancyDate":"",
    "sourceNo":8,
    "uncertain":"0"
    }
  },
  {
    "type": "Feature",
    "geometry": {
       "type": "Point",
       "coordinates":  [ 139.8028,35.7250 ]
    },
    "properties": {
    "HID":1006012,
    "Type":"認可保育所",
    "Name":"清川保育園",
    "Label":"清川保育園",
    "Full":80,
    "Add1":"東京都台東区",
    "Add2":"清川１‐１５‐１１",
    "TEL":"03-3872-0116",
    "url":"",
    "Vacancy":"",
    "VacancyDate":"",
    "sourceNo":8,
    "uncertain":"0"
    }
  },
  {
    "type": "Feature",
    "geometry": {
       "type": "Point",
       "coordinates":  [ 139.8037,35.7275 ]
    },
    "properties": {
    "HID":1006013,
    "Type":"認可保育所",
    "Name":"玉姫保育園",
    "Label":"玉姫保育園",
    "Full":85,
    "Add1":"東京都台東区",
    "Add2":"清川２−２２−１６",
    "TEL":"03-3872-5364",
    "url":"",
    "Vacancy":"",
    "VacancyDate":"",
    "sourceNo":8,
    "uncertain":"0"
    }
  },
  {
    "type": "Feature",
    "geometry": {
       "type": "Point",
       "coordinates":  [ 139.7927,35.7224 ]
    },
    "properties": {
    "HID":1006014,
    "Type":"認可保育所",
    "Name":"千束保育園",
    "Label":"千束保育園",
    "Full":105,
    "Add1":"東京都台東区",
    "Add2":"千束３−２０−６",
    "TEL":"03-3874-1713",
    "url":"",
    "Vacancy":"",
    "VacancyDate":"",
    "sourceNo":8,
    "uncertain":"0"
    }
  },
  {
    "type": "Feature",
    "geometry": {
       "type": "Point",
       "coordinates":  [ 139.7847,35.7003 ]
    },
    "properties": {
    "HID":1006015,
    "Type":"認可保育所",
    "Name":"浅草橋保育園",
    "Label":"浅草橋保育園",
    "Full":119,
    "Add1":"東京都台東区",
    "Add2":"浅草橋２−２３−５",
    "TEL":"03-3866-0321",
    "url":"",
    "Vacancy":"",
    "VacancyDate":"",
    "sourceNo":8,
    "uncertain":"0"
    }
  },
  {
    "type": "Feature",
    "geometry": {
       "type": "Point",
       "coordinates":  [ 139.7881,35.7036 ]
    },
    "properties": {
    "HID":1006016,
    "Type":"認可保育所",
    "Name":"アスクくらまえ保育園",
    "Label":"アスクくらまえ保育園",
    "Full":90,
    "Add1":"東京都台東区",
    "Add2":"蔵前４−１６−１０",
    "TEL":"03-5822-5205",
    "url":"",
    "Vacancy":"",
    "VacancyDate":"",
    "sourceNo":10,
    "uncertain":"1"
    }
  },
  {
    "type": "Feature",
    "geometry": {
       "type": "Point",
       "coordinates":  [ 139.7765,35.7013 ]
    },
    "properties": {
    "HID":1006017,
    "Type":"認可保育所",
    "Name":"台東保育園",
    "Label":"台東保育園",
    "Full":93,
    "Add1":"東京都台東区",
    "Add2":"台東１−１１−１０",
    "TEL":"03-3832-6743",
    "url":"",
    "Vacancy":"",
    "VacancyDate":"",
    "sourceNo":8,
    "uncertain":"0"
    }
  },
  {
    "type": "Feature",
    "geometry": {
       "type": "Point",
       "coordinates":  [ 139.7798,35.7063 ]
    },
    "properties": {
    "HID":1006018,
    "Type":"認可保育所",
    "Name":"ゆらりん竹町保育園",
    "Label":"ゆらりん竹町保育園",
    "Full":80,
    "Add1":"東京都台東区",
    "Add2":"台東４−１６−８",
    "TEL":"03-5812-4028",
    "url":"",
    "Vacancy":"",
    "VacancyDate":"",
    "sourceNo":8,
    "uncertain":"0"
    }
  },
  {
    "type": "Feature",
    "geometry": {
       "type": "Point",
       "coordinates":  [ 139.7664,35.7248 ]
    },
    "properties": {
    "HID":1006019,
    "Type":"認可保育所",
    "Name":"立華学苑",
    "Label":"立華学苑",
    "Full":60,
    "Add1":"東京都台東区",
    "Add2":"谷中５−４−１９",
    "TEL":"03-3828-9255",
    "url":"",
    "Vacancy":"",
    "VacancyDate":"",
    "sourceNo":8,
    "uncertain":"0"
    }
  },
  {
    "type": "Feature",
    "geometry": {
       "type": "Point",
       "coordinates":  [ 139.7813,35.7096 ]
    },
    "properties": {
    "HID":1006020,
    "Type":"認可保育所",
    "Name":"東上野保育園",
    "Label":"東上野保育園",
    "Full":117,
    "Add1":"東京都台東区",
    "Add2":"東上野２−２５−１２",
    "TEL":"03-3833-9810",
    "url":"",
    "Vacancy":"",
    "VacancyDate":"",
    "sourceNo":8,
    "uncertain":"0"
    }
  },
  {
    "type": "Feature",
    "geometry": {
       "type": "Point",
       "coordinates":  [ 139.7815,35.7145 ]
    },
    "properties": {
    "HID":1006021,
    "Type":"認可保育所",
    "Name":"東上野乳児保育園",
    "Label":"東上野乳児保育園",
    "Full":60,
    "Add1":"東京都台東区",
    "Add2":"東上野４−２２−３",
    "TEL":"03-3844-3577",
    "url":"",
    "Vacancy":"",
    "VacancyDate":"",
    "sourceNo":8,
    "uncertain":"0"
    }
  },
  {
    "type": "Feature",
    "geometry": {
       "type": "Point",
       "coordinates":  [ 139.7837,35.7147 ]
    },
    "properties": {
    "HID":1006022,
    "Type":"認可保育所",
    "Name":"上野保育園",
    "Label":"上野保育園",
    "Full":49,
    "Add1":"東京都台東区",
    "Add2":"東上野６−２０−７",
    "TEL":"03-3841-7545",
    "url":"",
    "Vacancy":"",
    "VacancyDate":"",
    "sourceNo":8,
    "uncertain":"0"
    }
  },
  {
    "type": "Feature",
    "geometry": {
       "type": "Point",
       "coordinates":  [ 139.7979,35.7250 ]
    },
    "properties": {
    "HID":1006023,
    "Type":"認可保育所",
    "Name":"康保会保育園",
    "Label":"康保会保育園",
    "Full":70,
    "Add1":"東京都台東区",
    "Add2":"日本堤１−６−２",
    "TEL":"03-3875-0514",
    "url":"",
    "Vacancy":"",
    "VacancyDate":"",
    "sourceNo":8,
    "uncertain":"0"
    }
  },
  {
    "type": "Feature",
    "geometry": {
       "type": "Point",
       "coordinates":  [ 139.7975,35.7271 ]
    },
    "properties": {
    "HID":1006024,
    "Type":"認可保育所",
    "Name":"康保会乳児保育所",
    "Label":"康保会乳児保育所",
    "Full":122,
    "Add1":"東京都台東区",
    "Add2":"日本堤２−７−１",
    "TEL":"03-3875-0058",
    "url":"",
    "Vacancy":"",
    "VacancyDate":"",
    "sourceNo":8,
    "uncertain":"0"
    }
  },
  {
    "type": "Feature",
    "geometry": {
       "type": "Point",
       "coordinates":  [ 139.7908,35.6940 ]
    },
    "properties": {
    "HID":1007001,
    "Type":"認可保育所",
    "Name":"両国・なかよし保育園",
    "Label":"両国・なかよし保育園",
    "Full":102,
    "Add1":"東京都墨田区",
    "Add2":"両国一丁目１０番７号",
    "TEL":"--",
    "url":"",
    "Vacancy":"",
    "VacancyDate":"",
    "sourceNo":10,
    "uncertain":"1"
    }
  },
  {
    "type": "Feature",
    "geometry": {
       "type": "Point",
       "coordinates":  [ 139.8118,35.7114 ]
    },
    "properties": {
    "HID":1007002,
    "Type":"認可保育所",
    "Name":"押上保育園",
    "Label":"押上保育園",
    "Full":101,
    "Add1":"東京都墨田区",
    "Add2":"押上２−１０−１７",
    "TEL":"03-3623-6030",
    "url":"",
    "Vacancy":"",
    "VacancyDate":"",
    "sourceNo":8,
    "uncertain":"0"
    }
  },
  {
    "type": "Feature",
    "geometry": {
       "type": "Point",
       "coordinates":  [ 139.8202,35.7122 ]
    },
    "properties": {
    "HID":1007003,
    "Type":"認可保育所",
    "Name":"共愛館保育園",
    "Label":"共愛館保育園",
    "Full":128,
    "Add1":"東京都墨田区",
    "Add2":"押上３−５３−６",
    "TEL":"--",
    "url":"",
    "Vacancy":"",
    "VacancyDate":"",
    "sourceNo":8,
    "uncertain":"0"
    }
  },
  {
    "type": "Feature",
    "geometry": {
       "type": "Point",
       "coordinates":  [ 139.8174,35.7051 ]
    },
    "properties": {
    "HID":1007004,
    "Type":"認可保育所",
    "Name":"横川さくら保育園",
    "Label":"横川さくら保育園",
    "Full":75,
    "Add1":"東京都墨田区",
    "Add2":"横川５−９−１",
    "TEL":"03-5608-4525",
    "url":"",
    "Vacancy":"",
    "VacancyDate":"",
    "sourceNo":8,
    "uncertain":"0"
    }
  },
  {
    "type": "Feature",
    "geometry": {
       "type": "Point",
       "coordinates":  [ 139.7995,35.6985 ]
    },
    "properties": {
    "HID":1007005,
    "Type":"認可保育所",
    "Name":"亀沢保育園",
    "Label":"亀沢保育園",
    "Full":95,
    "Add1":"東京都墨田区",
    "Add2":"亀沢１−２７−５",
    "TEL":"03-3624-7781",
    "url":"",
    "Vacancy":"",
    "VacancyDate":"",
    "sourceNo":8,
    "uncertain":"0"
    }
  },
  {
    "type": "Feature",
    "geometry": {
       "type": "Point",
       "coordinates":  [ 139.8034,35.6964 ]
    },
    "properties": {
    "HID":1007006,
    "Type":"認可保育所",
    "Name":"墨田みどり保育園",
    "Label":"墨田みどり保育園",
    "Full":100,
    "Add1":"東京都墨田区",
    "Add2":"亀沢３−７−１１",
    "TEL":"03-3624-4508",
    "url":"",
    "Vacancy":"",
    "VacancyDate":"",
    "sourceNo":8,
    "uncertain":"0"
    }
  },
  {
    "type": "Feature",
    "geometry": {
       "type": "Point",
       "coordinates":  [ 139.8026,35.6899 ]
    },
    "properties": {
    "HID":1007007,
    "Type":"認可保育所",
    "Name":"すみだ中和こころ保育園",
    "Label":"すみだ中和こころ保育園",
    "Full":60,
    "Add1":"東京都墨田区",
    "Add2":"菊川１−１８−５",
    "TEL":"--",
    "url":"",
    "Vacancy":"",
    "VacancyDate":"",
    "sourceNo":10,
    "uncertain":"1"
    }
  },
  {
    "type": "Feature",
    "geometry": {
       "type": "Point",
       "coordinates":  [ 139.8178,35.7152 ]
    },
    "properties": {
    "HID":1007008,
    "Type":"認可保育所",
    "Name":"興望館保育園",
    "Label":"興望館保育園",
    "Full":160,
    "Add1":"東京都墨田区",
    "Add2":"京島１−１１−６",
    "TEL":"03-3611-1866",
    "url":"",
    "Vacancy":"",
    "VacancyDate":"",
    "sourceNo":8,
    "uncertain":"0"
    }
  },
  {
    "type": "Feature",
    "geometry": {
       "type": "Point",
       "coordinates":  [ 139.8191,35.6968 ]
    },
    "properties": {
    "HID":1007009,
    "Type":"認可保育所",
    "Name":"きんし保育園",
    "Label":"きんし保育園",
    "Full":109,
    "Add1":"東京都墨田区",
    "Add2":"江東橋４−３０−２−３０１",
    "TEL":"03-3635-1001",
    "url":"",
    "Vacancy":"",
    "VacancyDate":"",
    "sourceNo":8,
    "uncertain":"0"
    }
  },
  {
    "type": "Feature",
    "geometry": {
       "type": "Point",
       "coordinates":  [ 139.8112,35.6889 ]
    },
    "properties": {
    "HID":1007010,
    "Type":"認可保育所",
    "Name":"菊川保育園",
    "Label":"菊川保育園",
    "Full":140,
    "Add1":"東京都墨田区",
    "Add2":"江東橋５−３−３",
    "TEL":"03-3633-1888",
    "url":"",
    "Vacancy":"",
    "VacancyDate":"",
    "sourceNo":10,
    "uncertain":"1"
    }
  },
  {
    "type": "Feature",
    "geometry": {
       "type": "Point",
       "coordinates":  [ 139.8104,35.7001 ]
    },
    "properties": {
    "HID":1007011,
    "Type":"認可保育所",
    "Name":"太平保育園",
    "Label":"太平保育園",
    "Full":80,
    "Add1":"東京都墨田区",
    "Add2":"太平１−１３−１０",
    "TEL":"03-3626-0776",
    "url":"",
    "Vacancy":"",
    "VacancyDate":"",
    "sourceNo":8,
    "uncertain":"0"
    }
  },
  {
    "type": "Feature",
    "geometry": {
       "type": "Point",
       "coordinates":  [ 139.8108,35.7022 ]
    },
    "properties": {
    "HID":1007012,
    "Type":"認可保育所",
    "Name":"横川橋保育園",
    "Label":"横川橋保育園",
    "Full":110,
    "Add1":"東京都墨田区",
    "Add2":"太平１−２７−１３",
    "TEL":"03-3622-3323",
    "url":"",
    "Vacancy":"",
    "VacancyDate":"",
    "sourceNo":8,
    "uncertain":"0"
    }
  },
  {
    "type": "Feature",
    "geometry": {
       "type": "Point",
       "coordinates":  [ 139.8136,35.7308 ]
    },
    "properties": {
    "HID":1007013,
    "Type":"認可保育所",
    "Name":"しらひげ保育園",
    "Label":"しらひげ保育園",
    "Full":100,
    "Add1":"東京都墨田区",
    "Add2":"堤通２−５−５−１０１",
    "TEL":"03-3611-1580",
    "url":"",
    "Vacancy":"",
    "VacancyDate":"",
    "sourceNo":8,
    "uncertain":"0"
    }
  },
  {
    "type": "Feature",
    "geometry": {
       "type": "Point",
       "coordinates":  [ 139.8161,35.7341 ]
    },
    "properties": {
    "HID":1007014,
    "Type":"認可保育所",
    "Name":"水神保育園",
    "Label":"水神保育園",
    "Full":90,
    "Add1":"東京都墨田区",
    "Add2":"堤通２−６−９−１０３",
    "TEL":"03-3616-1970",
    "url":"",
    "Vacancy":"",
    "VacancyDate":"",
    "sourceNo":8,
    "uncertain":"0"
    }
  },
  {
    "type": "Feature",
    "geometry": {
       "type": "Point",
       "coordinates":  [ 139.8172,35.7354 ]
    },
    "properties": {
    "HID":1007015,
    "Type":"認可保育所",
    "Name":"鐘ケ淵北保育園",
    "Label":"鐘ケ淵北保育園",
    "Full":113,
    "Add1":"東京都墨田区",
    "Add2":"堤通２−８−１５−１０９",
    "TEL":"03-3619-8531",
    "url":"",
    "Vacancy":"",
    "VacancyDate":"",
    "sourceNo":8,
    "uncertain":"0"
    }
  },
  {
    "type": "Feature",
    "geometry": {
       "type": "Point",
       "coordinates":  [ 139.7979,35.7068 ]
    },
    "properties": {
    "HID":1007016,
    "Type":"認可保育所",
    "Name":"育正保育園",
    "Label":"育正保育園",
    "Full":90,
    "Add1":"東京都墨田区",
    "Add2":"東駒形１−３−１５　マーナビル１階",
    "TEL":"03-5819-4533",
    "url":"",
    "Vacancy":"",
    "VacancyDate":"",
    "sourceNo":8,
    "uncertain":"0"
    }
  },
  {
    "type": "Feature",
    "geometry": {
       "type": "Point",
       "coordinates":  [ 139.7980,35.7055 ]
    },
    "properties": {
    "HID":1007017,
    "Type":"認可保育所",
    "Name":"東駒形保育園",
    "Label":"東駒形保育園",
    "Full":65,
    "Add1":"東京都墨田区",
    "Add2":"東駒形１−６−８",
    "TEL":"03-3625-8672",
    "url":"",
    "Vacancy":"",
    "VacancyDate":"",
    "sourceNo":8,
    "uncertain":"0"
    }
  },
  {
    "type": "Feature",
    "geometry": {
       "type": "Point",
       "coordinates":  [ 139.8050,35.7057 ]
    },
    "properties": {
    "HID":1007018,
    "Type":"認可保育所",
    "Name":"本所たから保育園",
    "Label":"本所たから保育園",
    "Full":75,
    "Add1":"東京都墨田区",
    "Add2":"東駒形４−４−７",
    "TEL":"03-5610-3737",
    "url":"",
    "Vacancy":"",
    "VacancyDate":"",
    "sourceNo":8,
    "uncertain":"0"
    }
  },
  {
    "type": "Feature",
    "geometry": {
       "type": "Point",
       "coordinates":  [ 139.8053,35.7060 ]
    },
    "properties": {
    "HID":1007019,
    "Type":"認可保育所",
    "Name":"光の園保育学校",
    "Label":"光の園保育学校",
    "Full":150,
    "Add1":"東京都墨田区",
    "Add2":"東駒形４−６−２",
    "TEL":"03-3622-8867",
    "url":"",
    "Vacancy":"",
    "VacancyDate":"",
    "sourceNo":8,
    "uncertain":"0"
    }
  },
  {
    "type": "Feature",
    "geometry": {
       "type": "Point",
       "coordinates":  [ 139.8125,35.7202 ]
    },
    "properties": {
    "HID":1007020,
    "Type":"認可保育所",
    "Name":"寺島保育園",
    "Label":"寺島保育園",
    "Full":90,
    "Add1":"東京都墨田区",
    "Add2":"東向島１−２３−１０",
    "TEL":"03-3614-0311",
    "url":"",
    "Vacancy":"",
    "VacancyDate":"",
    "sourceNo":8,
    "uncertain":"0"
    }
  },
  {
    "type": "Feature",
    "geometry": {
       "type": "Point",
       "coordinates":  [ 139.8156,35.7180 ]
    },
    "properties": {
    "HID":1007021,
    "Type":"認可保育所",
    "Name":"杉の子学園保育所",
    "Label":"杉の子学園保育所",
    "Full":70,
    "Add1":"東京都墨田区",
    "Add2":"東向島２−１８−８",
    "TEL":"03-3619-4153",
    "url":"",
    "Vacancy":"",
    "VacancyDate":"",
    "sourceNo":8,
    "uncertain":"0"
    }
  },
  {
    "type": "Feature",
    "geometry": {
       "type": "Point",
       "coordinates":  [ 139.8146,35.7247 ]
    },
    "properties": {
    "HID":1007022,
    "Type":"認可保育所",
    "Name":"花園保育園",
    "Label":"花園保育園",
    "Full":119,
    "Add1":"東京都墨田区",
    "Add2":"東向島３−１６−２",
    "TEL":"03-3614-5430",
    "url":"",
    "Vacancy":"",
    "VacancyDate":"",
    "sourceNo":8,
    "uncertain":"0"
    }
  },
  {
    "type": "Feature",
    "geometry": {
       "type": "Point",
       "coordinates":  [ 139.8193,35.7258 ]
    },
    "properties": {
    "HID":1007023,
    "Type":"認可保育所",
    "Name":"あおやぎ保育園",
    "Label":"あおやぎ保育園",
    "Full":120,
    "Add1":"東京都墨田区",
    "Add2":"東向島４−３７−１７",
    "TEL":"03-3614-6789",
    "url":"",
    "Vacancy":"",
    "VacancyDate":"",
    "sourceNo":8,
    "uncertain":"0"
    }
  },
  {
    "type": "Feature",
    "geometry": {
       "type": "Point",
       "coordinates":  [ 139.8213,35.7220 ]
    },
    "properties": {
    "HID":1007024,
    "Type":"認可保育所",
    "Name":"ナースリー保育園",
    "Label":"ナースリー保育園",
    "Full":61,
    "Add1":"東京都墨田区",
    "Add2":"東向島６−１５−５",
    "TEL":"03-3613-3470",
    "url":"",
    "Vacancy":"",
    "VacancyDate":"",
    "sourceNo":8,
    "uncertain":"0"
    }
  },
  {
    "type": "Feature",
    "geometry": {
       "type": "Point",
       "coordinates":  [ 139.8205,35.7216 ]
    },
    "properties": {
    "HID":1007025,
    "Type":"認可保育所",
    "Name":"東京愛育苑さゆり保育園",
    "Label":"東京愛育苑さゆり保育園",
    "Full":78,
    "Add1":"東京都墨田区",
    "Add2":"東向島６−７−８",
    "TEL":"03-3611-1912",
    "url":"",
    "Vacancy":"",
    "VacancyDate":"",
    "sourceNo":8,
    "uncertain":"0"
    }
  },
  {
    "type": "Feature",
    "geometry": {
       "type": "Point",
       "coordinates":  [ 139.8305,35.7187 ]
    },
    "properties": {
    "HID":1007026,
    "Type":"認可保育所",
    "Name":"中川保育園",
    "Label":"中川保育園",
    "Full":110,
    "Add1":"東京都墨田区",
    "Add2":"東墨田２−１−１５",
    "TEL":"03-3612-2968",
    "url":"",
    "Vacancy":"",
    "VacancyDate":"",
    "sourceNo":8,
    "uncertain":"0"
    }
  },
  {
    "type": "Feature",
    "geometry": {
       "type": "Point",
       "coordinates":  [ 139.8209,35.7200 ]
    },
    "properties": {
    "HID":1007027,
    "Type":"認可保育所",
    "Name":"ひきふね保育園",
    "Label":"ひきふね保育園",
    "Full":115,
    "Add1":"東京都墨田区",
    "Add2":"八広１−１−１８",
    "TEL":"03-3610-0263",
    "url":"",
    "Vacancy":"",
    "VacancyDate":"",
    "sourceNo":8,
    "uncertain":"0"
    }
  },
  {
    "type": "Feature",
    "geometry": {
       "type": "Point",
       "coordinates":  [ 139.8263,35.7210 ]
    },
    "properties": {
    "HID":1007028,
    "Type":"認可保育所",
    "Name":"八広保育園",
    "Label":"八広保育園",
    "Full":100,
    "Add1":"東京都墨田区",
    "Add2":"八広３−７−５",
    "TEL":"03-3617-2323",
    "url":"",
    "Vacancy":"",
    "VacancyDate":"",
    "sourceNo":8,
    "uncertain":"0"
    }
  },
  {
    "type": "Feature",
    "geometry": {
       "type": "Point",
       "coordinates":  [ 139.8253,35.7243 ]
    },
    "properties": {
    "HID":1007029,
    "Type":"認可保育所",
    "Name":"長浦保育園",
    "Label":"長浦保育園",
    "Full":110,
    "Add1":"東京都墨田区",
    "Add2":"八広５−１０−１−１０５",
    "TEL":"03-3616-7227",
    "url":"",
    "Vacancy":"",
    "VacancyDate":"",
    "sourceNo":8,
    "uncertain":"0"
    }
  },
  {
    "type": "Feature",
    "geometry": {
       "type": "Point",
       "coordinates":  [ 139.8232,35.7097 ]
    },
    "properties": {
    "HID":1007030,
    "Type":"認可保育所",
    "Name":"文花保育園",
    "Label":"文花保育園",
    "Full":100,
    "Add1":"東京都墨田区",
    "Add2":"文花１−２４−５",
    "TEL":"03-3611-6068",
    "url":"",
    "Vacancy":"",
    "VacancyDate":"",
    "sourceNo":8,
    "uncertain":"0"
    }
  },
  {
    "type": "Feature",
    "geometry": {
       "type": "Point",
       "coordinates":  [ 139.8221,35.7082 ]
    },
    "properties": {
    "HID":1007031,
    "Type":"認可保育所",
    "Name":"福神橋保育園",
    "Label":"福神橋保育園",
    "Full":69,
    "Add1":"東京都墨田区",
    "Add2":"文花１−３０−２１−１０１",
    "TEL":"03-3611-7721",
    "url":"",
    "Vacancy":"",
    "VacancyDate":"",
    "sourceNo":8,
    "uncertain":"0"
    }
  },
  {
    "type": "Feature",
    "geometry": {
       "type": "Point",
       "coordinates":  [ 139.8243,35.7075 ]
    },
    "properties": {
    "HID":1007032,
    "Type":"認可保育所",
    "Name":"おむらい保育園",
    "Label":"おむらい保育園",
    "Full":110,
    "Add1":"東京都墨田区",
    "Add2":"文花１−３２−１−１０３",
    "TEL":"03-3613-5391",
    "url":"",
    "Vacancy":"",
    "VacancyDate":"",
    "sourceNo":8,
    "uncertain":"0"
    }
  },
  {
    "type": "Feature",
    "geometry": {
       "type": "Point",
       "coordinates":  [ 139.8176,35.7308 ]
    },
    "properties": {
    "HID":1007033,
    "Type":"認可保育所",
    "Name":"梅若保育園",
    "Label":"梅若保育園",
    "Full":110,
    "Add1":"東京都墨田区",
    "Add2":"墨田２−３８−１３",
    "TEL":"03-3611-6571",
    "url":"",
    "Vacancy":"",
    "VacancyDate":"",
    "sourceNo":8,
    "uncertain":"0"
    }
  },
  {
    "type": "Feature",
    "geometry": {
       "type": "Point",
       "coordinates":  [ 139.8233,35.7320 ]
    },
    "properties": {
    "HID":1007034,
    "Type":"認可保育所",
    "Name":"すみだ保育園",
    "Label":"すみだ保育園",
    "Full":85,
    "Add1":"東京都墨田区",
    "Add2":"墨田４−２２−４−１０１",
    "TEL":"03-3619-5844",
    "url":"",
    "Vacancy":"",
    "VacancyDate":"",
    "sourceNo":8,
    "uncertain":"0"
    }
  },
  {
    "type": "Feature",
    "geometry": {
       "type": "Point",
       "coordinates":  [ 139.8233,35.7337 ]
    },
    "properties": {
    "HID":1007035,
    "Type":"認可保育所",
    "Name":"ほがらか保育園",
    "Label":"ほがらか保育園",
    "Full":70,
    "Add1":"東京都墨田区",
    "Add2":"墨田４−３０−１４",
    "TEL":"03-3611-7685",
    "url":"",
    "Vacancy":"",
    "VacancyDate":"",
    "sourceNo":8,
    "uncertain":"0"
    }
  },
  {
    "type": "Feature",
    "geometry": {
       "type": "Point",
       "coordinates":  [ 139.8262,35.7305 ]
    },
    "properties": {
    "HID":1007036,
    "Type":"認可保育所",
    "Name":"木ノ下保育園",
    "Label":"木ノ下保育園",
    "Full":60,
    "Add1":"東京都墨田区",
    "Add2":"墨田４−６０−１３",
    "TEL":"03-3612-5458",
    "url":"",
    "Vacancy":"",
    "VacancyDate":"",
    "sourceNo":8,
    "uncertain":"0"
    }
  },
  {
    "type": "Feature",
    "geometry": {
       "type": "Point",
       "coordinates":  [ 139.8294,35.7043 ]
    },
    "properties": {
    "HID":1007037,
    "Type":"認可保育所",
    "Name":"東あずま保育園",
    "Label":"東あずま保育園",
    "Full":114,
    "Add1":"東京都墨田区",
    "Add2":"立花１−２７−６−１０１",
    "TEL":"03-3613-2868",
    "url":"",
    "Vacancy":"",
    "VacancyDate":"",
    "sourceNo":8,
    "uncertain":"0"
    }
  },
  {
    "type": "Feature",
    "geometry": {
       "type": "Point",
       "coordinates":  [ 139.8343,35.7071 ]
    },
    "properties": {
    "HID":1007038,
    "Type":"認可保育所",
    "Name":"たちばな保育園",
    "Label":"たちばな保育園",
    "Full":91,
    "Add1":"東京都墨田区",
    "Add2":"立花３−２１−１６",
    "TEL":"03-3617-7950",
    "url":"",
    "Vacancy":"",
    "VacancyDate":"",
    "sourceNo":8,
    "uncertain":"0"
    }
  },
  {
    "type": "Feature",
    "geometry": {
       "type": "Point",
       "coordinates":  [ 139.8308,35.7122 ]
    },
    "properties": {
    "HID":1007039,
    "Type":"認可保育所",
    "Name":"厚生館保育園",
    "Label":"厚生館保育園",
    "Full":100,
    "Add1":"東京都墨田区",
    "Add2":"立花５−２１−３",
    "TEL":"03-3613-1931",
    "url":"",
    "Vacancy":"",
    "VacancyDate":"",
    "sourceNo":8,
    "uncertain":"0"
    }
  },
  {
    "type": "Feature",
    "geometry": {
       "type": "Point",
       "coordinates":  [ 139.8355,35.7103 ]
    },
    "properties": {
    "HID":1007040,
    "Type":"認可保育所",
    "Name":"中川南保育園",
    "Label":"中川南保育園",
    "Full":110,
    "Add1":"東京都墨田区",
    "Add2":"立花６−８−２−１０６",
    "TEL":"03-3616-4141",
    "url":"",
    "Vacancy":"",
    "VacancyDate":"",
    "sourceNo":8,
    "uncertain":"0"
    }
  },
  {
    "type": "Feature",
    "geometry": {
       "type": "Point",
       "coordinates":  [ 139.7998,35.6905 ]
    },
    "properties": {
    "HID":1007041,
    "Type":"認可保育所",
    "Name":"立川保育園",
    "Label":"立川保育園",
    "Full":90,
    "Add1":"東京都墨田区",
    "Add2":"立川１−５−２",
    "TEL":"03-3633-6960",
    "url":"",
    "Vacancy":"",
    "VacancyDate":"",
    "sourceNo":8,
    "uncertain":"0"
    }
  },
  {
    "type": "Feature",
    "geometry": {
       "type": "Point",
       "coordinates":  [ 139.8014,35.6959 ]
    },
    "properties": {
    "HID":1007042,
    "Type":"認可保育所",
    "Name":"こひつじ保育園",
    "Label":"こひつじ保育園",
    "Full":100,
    "Add1":"東京都墨田区",
    "Add2":"緑２−２３−３",
    "TEL":"03-5600-1211",
    "url":"",
    "Vacancy":"",
    "VacancyDate":"",
    "sourceNo":8,
    "uncertain":"0"
    }
  },
  {
    "type": "Feature",
    "geometry": {
       "type": "Point",
       "coordinates":  [ 139.8044,35.6947 ]
    },
    "properties": {
    "HID":1007043,
    "Type":"認可保育所",
    "Name":"わらべみどり保育園",
    "Label":"わらべみどり保育園",
    "Full":100,
    "Add1":"東京都墨田区",
    "Add2":"緑３−１２−２",
    "TEL":"03-5638-1551",
    "url":"",
    "Vacancy":"",
    "VacancyDate":"",
    "sourceNo":8,
    "uncertain":"0"
    }
  },
  {
    "type": "Feature",
    "geometry": {
       "type": "Point",
       "coordinates":  [ 139.8074,35.6958 ]
    },
    "properties": {
    "HID":1007044,
    "Type":"認可保育所",
    "Name":"江東橋保育園",
    "Label":"江東橋保育園",
    "Full":161,
    "Add1":"東京都墨田区",
    "Add2":"緑４−３５−９",
    "TEL":"03-3631-2411",
    "url":"",
    "Vacancy":"",
    "VacancyDate":"",
    "sourceNo":8,
    "uncertain":"0"
    }
  },
  {
    "type": "Feature",
    "geometry": {
       "type": "Point",
       "coordinates":  [ 139.7968,35.6531 ]
    },
    "properties": {
    "HID":1008001,
    "Type":"認可保育所",
    "Name":"キッズポケット豊洲保育園",
    "Label":"キッズポケット豊洲保育園",
    "Full":70,
    "Add1":"江東区",
    "Add2":"豊洲五丁目５番２５号",
    "TEL":"--",
    "url":"",
    "Vacancy":"",
    "VacancyDate":"",
    "sourceNo":10,
    "uncertain":"1"
    }
  },
  {
    "type": "Feature",
    "geometry": {
       "type": "Point",
       "coordinates":  [ 139.8253,35.6918 ]
    },
    "properties": {
    "HID":1008002,
    "Type":"認可保育所",
    "Name":"マミー保育園西大島",
    "Label":"マミー保育園西大島",
    "Full":60,
    "Add1":"江東区",
    "Add2":"大島二丁目３６番１５号",
    "TEL":"--",
    "url":"",
    "Vacancy":"",
    "VacancyDate":"",
    "sourceNo":10,
    "uncertain":"1"
    }
  },
  {
    "type": "Feature",
    "geometry": {
       "type": "Point",
       "coordinates":  [ 139.7972,35.6830 ]
    },
    "properties": {
    "HID":1008003,
    "Type":"認可保育所",
    "Name":"うぃず清澄白河駅前保育園",
    "Label":"うぃず清澄白河駅前保育園",
    "Full":70,
    "Add1":"江東区",
    "Add2":"清澄三丁目１０番５号",
    "TEL":"--",
    "url":"",
    "Vacancy":"",
    "VacancyDate":"",
    "sourceNo":10,
    "uncertain":"1"
    }
  },
  {
    "type": "Feature",
    "geometry": {
       "type": "Point",
       "coordinates":  [ 139.7988,35.6845 ]
    },